[{"SITEID":26,"CONTID":"","GROUP":"cont","STATUS":"active","ADDRESS":"Ilvesheimerstr. 48, 68526 Ladenburg","LAT":49.4763103,"LON":8.5905018,"NUM_YEARS":7,"YIELD":5840,"RANK_#":355,"RANK_%":0.08,"CONTACTID":11},{"SITEID":33,"CONTID":"","GROUP":"cont","STATUS":"active","ADDRESS":"Bahnhofstr., 68542 Heddesheim","LAT":49.5051918,"LON":8.596616,"NUM_YEARS":8,"YIELD":18720,"RANK_#":163,"RANK_%":0.22,"CONTACTID":3},{"SITEID":78,"CONTID":"","GROUP":"cont","STATUS":"active","ADDRESS":"Bleichstr. \/Mundenheimer Str., 67061 Ludwigshafen (S\u00fcd)","LAT":49.4687898,"LON":8.4440066,"NUM_YEARS":8,"YIELD":4840,"RANK_#":371,"RANK_%":0.06,"CONTACTID":32},{"SITEID":79,"CONTID":"","GROUP":"cont","STATUS":"active","ADDRESS":"Mundenheimer Str. \/Adlerdamm, 67061 Ludwigshafen (S\u00fcd)","LAT":49.4641872,"LON":8.4367044,"NUM_YEARS":8,"YIELD":5230,"RANK_#":373,"RANK_%":0.06,"CONTACTID":44},{"SITEID":89,"CONTID":"","GROUP":"cont","STATUS":"active","ADDRESS":"Mozartstr. \/Dammstr., 67112 Mutterstadt","LAT":49.44273,"LON":8.3469,"NUM_YEARS":8,"YIELD":13900,"RANK_#":225,"RANK_%":0.16,"CONTACTID":3},{"SITEID":98,"CONTID":"","GROUP":"cont","STATUS":"active","ADDRESS":"Albert-Haueisen-Ring, 67071 Ludwigshafen (Oggersheim)","LAT":49.50337,"LON":8.38322,"NUM_YEARS":7,"YIELD":5560,"RANK_#":363,"RANK_%":0.07,"CONTACTID":3},{"SITEID":106,"CONTID":"","GROUP":"cont","STATUS":"active","ADDRESS":"Lindenweg gg18 ehem ne52 \/Lucas-Cranach, 69126 Heidelberg (Rohrbach)","LAT":49.3693394,"LON":8.6935081,"NUM_YEARS":8,"YIELD":13010,"RANK_#":239,"RANK_%":0.15,"CONTACTID":40},{"SITEID":114,"CONTID":"","GROUP":"cont","STATUS":"active","ADDRESS":"Bleichstr. ca. Nr. 63, 67061 Ludwigshafen (S\u00fcd)","LAT":49.4692143,"LON":8.4520572,"NUM_YEARS":7,"YIELD":3600,"RANK_#":382,"RANK_%":0.05,"CONTACTID":3},{"SITEID":139,"CONTID":"","GROUP":"cont","STATUS":"active","ADDRESS":"Friedensstr. gg\u00fc. Nr. 23, 68782 Br\u00fchl (S\u00fcd)","LAT":49.4034723,"LON":8.5318309,"NUM_YEARS":8,"YIELD":12160,"RANK_#":265,"RANK_%":0.14,"CONTACTID":3},{"SITEID":169,"CONTID":"","GROUP":"cont","STATUS":"active","ADDRESS":"Notwendestr\/Mittelpartstr., 67071 Ludwigshafen (Oggersheim)","LAT":49.49479,"LON":8.37928,"NUM_YEARS":7,"YIELD":2810,"RANK_#":400,"RANK_%":0.04,"CONTACTID":3},{"SITEID":198,"CONTID":"","GROUP":"cont","STATUS":"active","ADDRESS":"Heidelbergerstr.\/Neckarstr., 69493 Hirschberg (Leutershausen)","LAT":49.4957146,"LON":8.6530985,"NUM_YEARS":8,"YIELD":8960,"RANK_#":309,"RANK_%":0.11,"CONTACTID":3},{"SITEID":199,"CONTID":"","GROUP":"cont","STATUS":"active","ADDRESS":"Gerhart-Hauptmann-Str. 30, 69221 Dossenheim","LAT":49.4427412,"LON":8.6662683,"NUM_YEARS":8,"YIELD":15290,"RANK_#":196,"RANK_%":0.18,"CONTACTID":3},{"SITEID":206,"CONTID":"","GROUP":"cont","STATUS":"active","ADDRESS":"Boschstr. \/Schulstr., 69214 Eppelheim","LAT":49.4039512,"LON":8.6270034,"NUM_YEARS":6,"YIELD":9060,"RANK_#":262,"RANK_%":0.14,"CONTACTID":80408},{"SITEID":215,"CONTID":"","GROUP":"cont","STATUS":"active","ADDRESS":"Heltenstr. \/Bayerm\u00fchle, 69181 Leimen","LAT":49.3539231,"LON":8.703341,"NUM_YEARS":5,"YIELD":5130,"RANK_#":318,"RANK_%":0.1,"CONTACTID":3},{"SITEID":226,"CONTID":"","GROUP":"cont","STATUS":"active","ADDRESS":"Schwetzinger Str., 69168 Wiesloch","LAT":49.2914667,"LON":8.6832571,"NUM_YEARS":4,"YIELD":13570,"RANK_#":85,"RANK_%":0.32,"CONTACTID":3},{"SITEID":227,"CONTID":"","GROUP":"cont","STATUS":"active","ADDRESS":"B39 \/A5, 69190 Walldorf","LAT":49.3051114,"LON":8.6274118,"NUM_YEARS":5,"YIELD":7890,"RANK_#":247,"RANK_%":0.15,"CONTACTID":3},{"SITEID":232,"CONTID":"","GROUP":"cont","STATUS":"active","ADDRESS":"Boschstr. \/Schulstr., 69214 Eppelheim","LAT":49.4039512,"LON":8.6270034,"NUM_YEARS":4,"YIELD":5510,"RANK_#":274,"RANK_%":0.13,"CONTACTID":80408},{"SITEID":709,"CONTID":"L0073","GROUP":"cont","STATUS":"active","ADDRESS":"Schlachthofstr. \/Gottlob-Mott-Str., 71638 Ludwigsburg","LAT":48.8883519,"LON":9.2093353,"NUM_YEARS":15,"YIELD":59580,"RANK_#":62,"RANK_%":0.37,"CONTACTID":700},{"SITEID":711,"CONTID":"L0125","GROUP":"cont","STATUS":"active","ADDRESS":"Felsenstr. ganz am Ende \/Ihinger Str., 71106 Magstadt","LAT":48.7443799,"LON":8.9556091,"NUM_YEARS":15,"YIELD":16520,"RANK_#":320,"RANK_%":0.1,"CONTACTID":700},{"SITEID":713,"CONTID":"","GROUP":"cont","STATUS":"active","ADDRESS":"Stuttgarter Str. \/Im Grent, 72654 Neckartenzlingen","LAT":48.5888293,"LON":9.2438111,"NUM_YEARS":7,"YIELD":6250,"RANK_#":351,"RANK_%":0.08,"CONTACTID":704},{"SITEID":717,"CONTID":"","GROUP":"cont","STATUS":"active","ADDRESS":"Walter-Rathenau-Str. \/Panoramastr., 72766 Reutlingen","LAT":48.49484,"LON":9.22401,"NUM_YEARS":8,"YIELD":16830,"RANK_#":180,"RANK_%":0.2,"CONTACTID":700},{"SITEID":718,"CONTID":"L0090","GROUP":"cont","STATUS":"active","ADDRESS":"Sommerhaldestr. \/Panoramastr., 72766 Reutlingen","LAT":48.49484,"LON":9.22401,"NUM_YEARS":15,"YIELD":51330,"RANK_#":84,"RANK_%":0.32,"CONTACTID":700},{"SITEID":720,"CONTID":"L0124","GROUP":"cont","STATUS":"active","ADDRESS":"Einsteinstr. ganz am Ende \/R\u00f6ntgenstr., 72555 Metzingen","LAT":48.5378868,"LON":9.2668186,"NUM_YEARS":15,"YIELD":36750,"RANK_#":153,"RANK_%":0.23,"CONTACTID":700},{"SITEID":732,"CONTID":"","GROUP":"cont","STATUS":"active","ADDRESS":"Weilstr. \/K\u00f6nigsallee 1, 73733 Esslingen (Weil)","LAT":48.739856,"LON":9.2740933,"NUM_YEARS":6,"YIELD":10480,"RANK_#":234,"RANK_%":0.16,"CONTACTID":700},{"SITEID":745,"CONTID":"K0610","GROUP":"cont","STATUS":"active","ADDRESS":"T\u00fcbinger Str. \/Hausacher Str., 71034 B\u00f6blingen","LAT":48.6693716,"LON":9.0096598,"NUM_YEARS":15,"YIELD":18360,"RANK_#":289,"RANK_%":0.12,"CONTACTID":713},{"SITEID":753,"CONTID":"H0883","GROUP":"cont","STATUS":"active","ADDRESS":"Glash\u00fctter T\u00e4le, 71111 Waldenbuch (Glash\u00fctte)","LAT":48.63257,"LON":9.1534,"NUM_YEARS":15,"YIELD":60600,"RANK_#":60,"RANK_%":0.38,"CONTACTID":714},{"SITEID":770,"CONTID":"","GROUP":"cont","STATUS":"active","ADDRESS":"R\u00f6merhofstr.\/Hubertusstr., 71640 Ludwigsburg","LAT":48.90825,"LON":9.20074,"NUM_YEARS":5,"YIELD":4950,"RANK_#":343,"RANK_%":0.09,"CONTACTID":718},{"SITEID":774,"CONTID":"","GROUP":"cont","STATUS":"active","ADDRESS":"M\u00fchlbach\u00e4ckerstr. \/Wilh.-Keil-Str., 72072 T\u00fcbingen","LAT":48.508104,"LON":9.047091,"NUM_YEARS":9,"YIELD":24360,"RANK_#":131,"RANK_%":0.25,"CONTACTID":700},{"SITEID":775,"CONTID":"","GROUP":"cont","STATUS":"active","ADDRESS":"Beim Wasserturm \/Stuttgarter Str., 71334 Waiblingen","LAT":48.82376,"LON":9.3008,"NUM_YEARS":6,"YIELD":9280,"RANK_#":240,"RANK_%":0.15,"CONTACTID":700},{"SITEID":780,"CONTID":"","GROUP":"cont","STATUS":"active","ADDRESS":"Palmenwaldstr. \/Heinrich-Gyr-Str., 73733 Esslingen (Br\u00fchl)","LAT":48.7420073,"LON":9.2722886,"NUM_YEARS":6,"YIELD":11450,"RANK_#":208,"RANK_%":0.18,"CONTACTID":700},{"SITEID":785,"CONTID":"","GROUP":"cont","STATUS":"active","ADDRESS":"Lessingstr. \/Brentanostr., 72770 Reutlingen (Betzingen)","LAT":48.5048293,"LON":9.1739767,"NUM_YEARS":5,"YIELD":2490,"RANK_#":394,"RANK_%":0.05,"CONTACTID":720},{"SITEID":815,"CONTID":"H0614","GROUP":"cont","STATUS":"active","ADDRESS":"Sch\u00fctzenhof 5 (=B297), 73116 W\u00e4schenbeuren (Sch\u00fctzenhof)","LAT":48.75237,"LON":9.6747099,"NUM_YEARS":14,"YIELD":16770,"RANK_#":300,"RANK_%":0.11,"CONTACTID":728},{"SITEID":821,"CONTID":"K3078","GROUP":"cont","STATUS":"active","ADDRESS":"Hauptstr. geg. Nr.121 \/Albershauser Str., 73110 Hattenhofen","LAT":48.6664955,"LON":9.5617027,"NUM_YEARS":14,"YIELD":35650,"RANK_#":138,"RANK_%":0.24,"CONTACTID":700},{"SITEID":822,"CONTID":"K0163","GROUP":"cont","STATUS":"active","ADDRESS":"Sparwieser Str. \/Kornbergstr., 73095 Albershausen","LAT":48.68959,"LON":9.56977,"NUM_YEARS":14,"YIELD":32240,"RANK_#":161,"RANK_%":0.22,"CONTACTID":700},{"SITEID":825,"CONTID":"","GROUP":"cont","STATUS":"active","ADDRESS":"M\u00fchlbach\u00e4ckerstr. \/Wilh.-Keil-Str., 72072 T\u00fcbingen","LAT":48.508104,"LON":9.047091,"NUM_YEARS":8,"YIELD":23760,"RANK_#":110,"RANK_%":0.28,"CONTACTID":700},{"SITEID":827,"CONTID":"K1737","GROUP":"cont","STATUS":"active","ADDRESS":"Daimlerstr. \/Burghofstr., 72644 Oberboihingen","LAT":48.649437,"LON":9.3635818,"NUM_YEARS":14,"YIELD":43420,"RANK_#":103,"RANK_%":0.29,"CONTACTID":700},{"SITEID":831,"CONTID":"H3130","GROUP":"cont","STATUS":"active","ADDRESS":"Steigbr\u00f6nnle \/Am Lerchenberg, 72622 N\u00fcrtingen","LAT":48.6182,"LON":9.33818,"NUM_YEARS":14,"YIELD":52940,"RANK_#":68,"RANK_%":0.36,"CONTACTID":700},{"SITEID":834,"CONTID":"","GROUP":"cont","STATUS":"active","ADDRESS":"Ebinger Weg \/Onstmettinger Weg, 70567 Stuttgart (M\u00f6hringen)","LAT":48.73319,"LON":9.1383,"NUM_YEARS":9,"YIELD":21740,"RANK_#":155,"RANK_%":0.23,"CONTACTID":700},{"SITEID":836,"CONTID":"L0126","GROUP":"cont","STATUS":"active","ADDRESS":"Ruppmannstr. \/Kupferstr., 70565 Stuttgart (Vaihingen)","LAT":48.72743,"LON":9.12061,"NUM_YEARS":14,"YIELD":42000,"RANK_#":112,"RANK_%":0.28,"CONTACTID":700},{"SITEID":855,"CONTID":"L0061","GROUP":"cont","STATUS":"active","ADDRESS":"Salierstr. neben Nr. 70 \/Schmalkalder, 71334 Waiblingen (Korber H\u00f6he)","LAT":48.8289378,"LON":9.3477744,"NUM_YEARS":14,"YIELD":59390,"RANK_#":51,"RANK_%":0.4,"CONTACTID":736},{"SITEID":861,"CONTID":"","GROUP":"cont","STATUS":"active","ADDRESS":"Hermann-L\u00f6ns-Weg \/Sibyllenweg, 73230 Kirchheim unter Teck","LAT":48.6383618,"LON":9.4637513,"NUM_YEARS":8,"YIELD":9970,"RANK_#":283,"RANK_%":0.12,"CONTACTID":700},{"SITEID":871,"CONTID":"L0113","GROUP":"cont","STATUS":"active","ADDRESS":"Schlachthofstr. \/Gottlob-Mott-Str., 71638 Ludwigsburg","LAT":48.8883519,"LON":9.2093353,"NUM_YEARS":14,"YIELD":53070,"RANK_#":67,"RANK_%":0.36,"CONTACTID":700},{"SITEID":873,"CONTID":"","GROUP":"cont","STATUS":"active","ADDRESS":"M\u00fchlbach\u00e4ckerstr. \/Wilh.-Keil-Str., 72072 T\u00fcbingen","LAT":48.508104,"LON":9.047091,"NUM_YEARS":8,"YIELD":21600,"RANK_#":137,"RANK_%":0.25,"CONTACTID":700},{"SITEID":878,"CONTID":"L3003","GROUP":"cont","STATUS":"active","ADDRESS":"Steigbr\u00f6nnle \/Am Lerchenberg, 72622 N\u00fcrtingen","LAT":48.6182,"LON":9.33818,"NUM_YEARS":13,"YIELD":45540,"RANK_#":75,"RANK_%":0.33,"CONTACTID":700},{"SITEID":889,"CONTID":"","GROUP":"cont","STATUS":"active","ADDRESS":"Lange \u00c4cker 71 \/Albrecht-D\u00fcrer-Weg, 73770 Denkendorf","LAT":48.70112,"LON":9.32373,"NUM_YEARS":7,"YIELD":11090,"RANK_#":237,"RANK_%":0.15,"CONTACTID":700},{"SITEID":891,"CONTID":"L0062","GROUP":"cont","STATUS":"active","ADDRESS":"Steigbr\u00f6nnle \/Am Lerchenberg, 72622 N\u00fcrtingen","LAT":48.6182,"LON":9.33818,"NUM_YEARS":13,"YIELD":37690,"RANK_#":116,"RANK_%":0.27,"CONTACTID":700},{"SITEID":902,"CONTID":"","GROUP":"cont","STATUS":"active","ADDRESS":"Ebinger Weg \/Onstmettinger Weg, 70567 Stuttgart (M\u00f6hringen)","LAT":48.73319,"LON":9.1383,"NUM_YEARS":7,"YIELD":19050,"RANK_#":122,"RANK_%":0.26,"CONTACTID":700},{"SITEID":916,"CONTID":"K3056","GROUP":"cont","STATUS":"active","ADDRESS":"Kalkofenstr. 5 \/Schorndorfer Str., 71384 Weinstadt (Endersbach)","LAT":48.8140461,"LON":9.3723905,"NUM_YEARS":12,"YIELD":32530,"RANK_#":136,"RANK_%":0.25,"CONTACTID":750},{"SITEID":917,"CONTID":"H0419","GROUP":"cont","STATUS":"active","ADDRESS":"Kalkofenstr. 5 \/Schorndorfer Str., 71384 Weinstadt (Endersbach)","LAT":48.8140461,"LON":9.3723905,"NUM_YEARS":12,"YIELD":33800,"RANK_#":120,"RANK_%":0.26,"CONTACTID":750},{"SITEID":920,"CONTID":"","GROUP":"cont","STATUS":"active","ADDRESS":"Benzstr. 8, 71384 Weinstadt (Endersbach)","LAT":48.81419,"LON":9.3846,"NUM_YEARS":4,"YIELD":12520,"RANK_#":105,"RANK_%":0.29,"CONTACTID":752},{"SITEID":927,"CONTID":"K2106","GROUP":"cont","STATUS":"active","ADDRESS":"Weinbergstr. \/???, 71397 Leutenbach (Nellmersbach)","LAT":48.897088,"LON":9.3833837,"NUM_YEARS":12,"YIELD":21210,"RANK_#":216,"RANK_%":0.17,"CONTACTID":759},{"SITEID":929,"CONTID":"K3092","GROUP":"cont","STATUS":"active","ADDRESS":"Dammstr. 1 \/Bismarckstr., 71409 Schwaikheim (Gewerbegebiet)","LAT":48.87408,"LON":9.35507,"NUM_YEARS":12,"YIELD":18420,"RANK_#":252,"RANK_%":0.14,"CONTACTID":760},{"SITEID":931,"CONTID":"","GROUP":"cont","STATUS":"active","ADDRESS":"Fellbacher Str. 85, 71394 Kernen im Remstal (Rommelsbach)","LAT":48.8067319,"LON":9.3099991,"NUM_YEARS":4,"YIELD":5440,"RANK_#":268,"RANK_%":0.13,"CONTACTID":761},{"SITEID":933,"CONTID":"K1743","GROUP":"cont","STATUS":"active","ADDRESS":"Daimlerstr. \/ Sudetenstr., 70736 Fellbach (Oeffingen)","LAT":48.83975,"LON":9.25956,"NUM_YEARS":12,"YIELD":106260,"RANK_#":4,"RANK_%":0.83,"CONTACTID":797},{"SITEID":934,"CONTID":"L0025","GROUP":"cont","STATUS":"active","ADDRESS":"Daimlerstr. \/ Sudetenstr., 70736 Fellbach (Oeffingen)","LAT":48.83975,"LON":9.25956,"NUM_YEARS":9,"YIELD":56560,"RANK_#":18,"RANK_%":0.59,"CONTACTID":797},{"SITEID":945,"CONTID":"L0121","GROUP":"cont","STATUS":"active","ADDRESS":"Schlachthofstr. \/Gottlob-Mott-Str., 71638 Ludwigsburg","LAT":48.8883519,"LON":9.2093353,"NUM_YEARS":12,"YIELD":55300,"RANK_#":43,"RANK_%":0.43,"CONTACTID":700},{"SITEID":946,"CONTID":"K3094","GROUP":"cont","STATUS":"active","ADDRESS":"Ruppmannstr. \/Kupferstr., 70565 Stuttgart (Vaihingen)","LAT":48.72743,"LON":9.12061,"NUM_YEARS":12,"YIELD":39340,"RANK_#":88,"RANK_%":0.31,"CONTACTID":700},{"SITEID":947,"CONTID":"","GROUP":"cont","STATUS":"active","ADDRESS":"Ebinger Weg \/Onstmettinger Weg, 70567 Stuttgart (M\u00f6hringen)","LAT":48.73319,"LON":9.1383,"NUM_YEARS":7,"YIELD":17870,"RANK_#":141,"RANK_%":0.24,"CONTACTID":700},{"SITEID":948,"CONTID":"K0201","GROUP":"cont","STATUS":"active","ADDRESS":"T\u00fcbinger Str. \/Hausacher Str., 71034 B\u00f6blingen","LAT":48.6693716,"LON":9.0096598,"NUM_YEARS":12,"YIELD":17090,"RANK_#":272,"RANK_%":0.13,"CONTACTID":768},{"SITEID":949,"CONTID":"","GROUP":"cont","STATUS":"active","ADDRESS":"M\u00fchlbach\u00e4ckerstr. \/Wilh.-Keil-Str., 72072 T\u00fcbingen","LAT":48.508104,"LON":9.047091,"NUM_YEARS":6,"YIELD":13790,"RANK_#":166,"RANK_%":0.22,"CONTACTID":700},{"SITEID":959,"CONTID":"","GROUP":"cont","STATUS":"active","ADDRESS":"R\u00f6merhofstr. \/Hubertusstr., 71640 Ludwigsburg","LAT":48.90825,"LON":9.20074,"NUM_YEARS":2,"YIELD":2530,"RANK_#":291,"RANK_%":0.12,"CONTACTID":718},{"SITEID":961,"CONTID":"K0599","GROUP":"cont","STATUS":"active","ADDRESS":"Sparwieser Str. \/Kornbergstr., 73095 Albershausen","LAT":48.68959,"LON":9.56977,"NUM_YEARS":12,"YIELD":26700,"RANK_#":168,"RANK_%":0.21,"CONTACTID":700},{"SITEID":966,"CONTID":"","GROUP":"cont","STATUS":"active","ADDRESS":"Siegenbergplatz 5 \/Siegenbergstr.\/Hoh., 73262 Reichenbach","LAT":48.7115689,"LON":9.4630115,"NUM_YEARS":3,"YIELD":4560,"RANK_#":253,"RANK_%":0.14,"CONTACTID":773},{"SITEID":973,"CONTID":"","GROUP":"cont","STATUS":"active","ADDRESS":"Neue Weinsteige (=B27), 70180 Stuttgart (S\u00fcd)","LAT":48.7617645,"LON":9.1795982,"NUM_YEARS":2,"YIELD":5200,"RANK_#":139,"RANK_%":0.24,"CONTACTID":700},{"SITEID":974,"CONTID":"","GROUP":"cont","STATUS":"active","ADDRESS":"Bosperwaldstr. \/Hohenheimer (=B27), 70180 Stuttgart (S\u00fcd)","LAT":48.7614271,"LON":9.1797128,"NUM_YEARS":2,"YIELD":6580,"RANK_#":91,"RANK_%":0.31,"CONTACTID":700},{"SITEID":975,"CONTID":"","GROUP":"cont","STATUS":"active","ADDRESS":"Konrad-Hornschuh-Str. 72 \/Bhf, 73660 Urbach","LAT":48.8123761,"LON":9.5758389,"NUM_YEARS":3,"YIELD":3240,"RANK_#":316,"RANK_%":0.1,"CONTACTID":777},{"SITEID":977,"CONTID":"","GROUP":"cont","STATUS":"active","ADDRESS":"Haldenbergstr. 15, 73547 Lorch","LAT":48.7999811,"LON":9.6864329,"NUM_YEARS":4,"YIELD":4030,"RANK_#":333,"RANK_%":0.09,"CONTACTID":779},{"SITEID":980,"CONTID":"","GROUP":"cont","STATUS":"active","ADDRESS":"Steinbeisstr. 10 \/Ahornstr., 73054 Eislingen\/Fils","LAT":48.6933439,"LON":9.6910498,"NUM_YEARS":4,"YIELD":13940,"RANK_#":78,"RANK_%":0.33,"CONTACTID":782},{"SITEID":984,"CONTID":"K1730","GROUP":"cont","STATUS":"active","ADDRESS":"Am Desenbach, 73098 Rechberghausen","LAT":48.7232912,"LON":9.63826,"NUM_YEARS":11,"YIELD":20100,"RANK_#":219,"RANK_%":0.17,"CONTACTID":700},{"SITEID":985,"CONTID":"","GROUP":"cont","STATUS":"active","ADDRESS":"Salamanderstr. gg\u00fc34 \/stillgeleg. Gleise, 73066 G\u00f6ppingen (Faurndau)","LAT":48.7054382,"LON":9.6512491,"NUM_YEARS":3,"YIELD":1640,"RANK_#":395,"RANK_%":0.05,"CONTACTID":700},{"SITEID":986,"CONTID":"","GROUP":"cont","STATUS":"active","ADDRESS":"Ramsbergstr. \/Lautertalstr., 73084 Salach","LAT":48.6888,"LON":9.74396,"NUM_YEARS":3,"YIELD":1330,"RANK_#":405,"RANK_%":0.04,"CONTACTID":700},{"SITEID":987,"CONTID":"K0219","GROUP":"cont","STATUS":"active","ADDRESS":"Haldenstr. 5, 73079 S\u00fc\u00dfen","LAT":48.68396,"LON":9.76041,"NUM_YEARS":10,"YIELD":8900,"RANK_#":357,"RANK_%":0.08,"CONTACTID":700},{"SITEID":988,"CONTID":"K3133","GROUP":"cont","STATUS":"active","ADDRESS":"Albstr. gg\u00fc Nr. 79 \/Sch\u00f6nholzweg, 73066 Uhingen (Sparwiesen)","LAT":48.682238,"LON":9.586265,"NUM_YEARS":11,"YIELD":12320,"RANK_#":298,"RANK_%":0.11,"CONTACTID":784},{"SITEID":989,"CONTID":"","GROUP":"cont","STATUS":"active","ADDRESS":"Schorndorfer Str. 121, 71638 Ludwigsburg (Ossweil)","LAT":48.8961711,"LON":9.2107948,"NUM_YEARS":3,"YIELD":4470,"RANK_#":266,"RANK_%":0.14,"CONTACTID":785},{"SITEID":990,"CONTID":"","GROUP":"cont","STATUS":"active","ADDRESS":"Friedrichstr. 169 \/Br\u00fcnner Str., 71368 Ludwigsburg (Ossweil)","LAT":48.8940624,"LON":9.195464,"NUM_YEARS":0,"YIELD":0,"RANK_#":446,"RANK_%":0,"CONTACTID":700},{"SITEID":993,"CONTID":"L0007","GROUP":"cont","STATUS":"active","ADDRESS":"Alemannenstr. \/Jahnstr., 73066 Uhingen","LAT":48.71044,"LON":9.58872,"NUM_YEARS":11,"YIELD":35820,"RANK_#":90,"RANK_%":0.31,"CONTACTID":700},{"SITEID":995,"CONTID":"","GROUP":"cont","STATUS":"active","ADDRESS":"Blumenstr. gg\u00fc81 \/Schumannstr., 73037 G\u00f6ppingen (Hailing)","LAT":48.70708,"LON":9.666,"NUM_YEARS":4,"YIELD":6300,"RANK_#":246,"RANK_%":0.15,"CONTACTID":814},{"SITEID":997,"CONTID":"","GROUP":"cont","STATUS":"active","ADDRESS":"Vordere Karlstr. \/Betzstr., 73033 G\u00f6ppingen (G\u00f6ppingen)","LAT":48.699887,"LON":9.6573191,"NUM_YEARS":1,"YIELD":1060,"RANK_#":330,"RANK_%":0.1,"CONTACTID":815},{"SITEID":1001,"CONTID":"","GROUP":"cont","STATUS":"active","ADDRESS":"Schwetzinger Str., 69168 Wiesloch","LAT":49.2914667,"LON":8.6832571,"NUM_YEARS":4,"YIELD":11810,"RANK_#":106,"RANK_%":0.28,"CONTACTID":45},{"SITEID":1014,"CONTID":"","GROUP":"cont","STATUS":"active","ADDRESS":"Gerhart-Hauptmann-Str. 30, 69221 Dossenheim","LAT":49.4427412,"LON":8.6662683,"NUM_YEARS":5,"YIELD":9980,"RANK_#":187,"RANK_%":0.19,"CONTACTID":3},{"SITEID":1016,"CONTID":"","GROUP":"cont","STATUS":"active","ADDRESS":"Bahnhofstr., 68542 Heddesheim","LAT":49.5051918,"LON":8.596616,"NUM_YEARS":5,"YIELD":8030,"RANK_#":243,"RANK_%":0.15,"CONTACTID":825},{"SITEID":1022,"CONTID":"","GROUP":"cont","STATUS":"active","ADDRESS":"Gro\u00dfeislinger Str., 73037 G\u00f6ppingen","LAT":48.7006796,"LON":9.6784823,"NUM_YEARS":4,"YIELD":5230,"RANK_#":284,"RANK_%":0.12,"CONTACTID":700},{"SITEID":1024,"CONTID":"","GROUP":"cont","STATUS":"active","ADDRESS":"Karl-K\u00fcbler-Str. 62 \/Rappenstr., 73035 G\u00f6ppingen (Faurndau)","LAT":48.70892,"LON":9.63732,"NUM_YEARS":4,"YIELD":7410,"RANK_#":221,"RANK_%":0.17,"CONTACTID":846},{"SITEID":1025,"CONTID":"","GROUP":"cont","STATUS":"active","ADDRESS":"Benzholzstr. 26 \/Perlenweg, 73525 Schw\u00e4bisch Gm\u00fcnd","LAT":48.8002357,"LON":9.8246186,"NUM_YEARS":3,"YIELD":2040,"RANK_#":372,"RANK_%":0.06,"CONTACTID":813},{"SITEID":1026,"CONTID":"","GROUP":"cont","STATUS":"active","ADDRESS":"Neckarstr. 100 \/Neckartalstr., 71686 Remseck (Aldingen)","LAT":48.8665915,"LON":9.252568,"NUM_YEARS":0,"YIELD":0,"RANK_#":443,"RANK_%":0,"CONTACTID":789},{"SITEID":1027,"CONTID":"","GROUP":"cont","STATUS":"active","ADDRESS":"J.-F.-Kennedy-Allee, 70806 Kornwestheim (Pattonville-West)","LAT":48.86801,"LON":9.22294,"NUM_YEARS":0,"YIELD":0,"RANK_#":444,"RANK_%":0,"CONTACTID":700},{"SITEID":1028,"CONTID":"L0042","GROUP":"cont","STATUS":"active","ADDRESS":"Am Sonnenberg \/Aldinger Str. (=K1692), 71638 Ludwigsburg (Gr\u00fcnb\u00fchl)","LAT":48.8839036,"LON":9.209197,"NUM_YEARS":11,"YIELD":37730,"RANK_#":82,"RANK_%":0.32,"CONTACTID":790},{"SITEID":1029,"CONTID":"","GROUP":"cont","STATUS":"active","ADDRESS":"Bargauer Str. 4 \/Am Kr\u00fcmmlingsbach, 73527 Schw\u00e4bisch Gm\u00fcnd (Zimmern)","LAT":48.8121346,"LON":9.8779741,"NUM_YEARS":3,"YIELD":2480,"RANK_#":356,"RANK_%":0.08,"CONTACTID":791},{"SITEID":1030,"CONTID":"","GROUP":"cont","STATUS":"active","ADDRESS":"Buchstr. \/Benzholzstr., 73525 Schw\u00e4bisch Gm\u00fcnd","LAT":48.80046,"LON":9.82705,"NUM_YEARS":4,"YIELD":11280,"RANK_#":118,"RANK_%":0.27,"CONTACTID":792},{"SITEID":1031,"CONTID":"U1573","GROUP":"cont","STATUS":"active","ADDRESS":"Lorcher Str. \/Rektor-Klaus-Str, 73525 Schw\u00e4bisch Gm\u00fcnd","LAT":48.7947218,"LON":9.7915265,"NUM_YEARS":11,"YIELD":12050,"RANK_#":322,"RANK_%":0.1,"CONTACTID":700},{"SITEID":1032,"CONTID":"","GROUP":"cont","STATUS":"active","ADDRESS":"Hauberweg \/Schwerzerallee, 73525 Schw\u00e4bisch Gm\u00fcnd","LAT":48.7934145,"LON":9.7809383,"NUM_YEARS":11,"YIELD":19650,"RANK_#":214,"RANK_%":0.17,"CONTACTID":700},{"SITEID":1033,"CONTID":"","GROUP":"cont","STATUS":"active","ADDRESS":"Lorcher Str. \/Vogelhofstr., 73525 Schw\u00e4bisch Gm\u00fcnd","LAT":48.7974755,"LON":9.7769419,"NUM_YEARS":3,"YIELD":1550,"RANK_#":392,"RANK_%":0.05,"CONTACTID":700},{"SITEID":1035,"CONTID":"","GROUP":"cont","STATUS":"active","ADDRESS":"Oststr. 77 \/Friedrichstr., 71638 Ludwigsburg","LAT":48.8892302,"LON":9.2013344,"NUM_YEARS":1,"YIELD":130,"RANK_#":422,"RANK_%":0.01,"CONTACTID":793},{"SITEID":1036,"CONTID":"","GROUP":"cont","STATUS":"active","ADDRESS":"Abelstr. 5, 71634 Ludwigsburg","LAT":48.89805,"LON":9.18271,"NUM_YEARS":1,"YIELD":0,"RANK_#":445,"RANK_%":0,"CONTACTID":700},{"SITEID":1043,"CONTID":"","GROUP":"cont","STATUS":"active","ADDRESS":"Fuchshofstr. \/Niedersachsenstr., 71638 Ludwigsburg","LAT":48.8923772,"LON":9.2219662,"NUM_YEARS":4,"YIELD":8790,"RANK_#":172,"RANK_%":0.21,"CONTACTID":798},{"SITEID":1049,"CONTID":"","GROUP":"cont","STATUS":"active","ADDRESS":"Umgehungsstr. (B297), 73230 Kirchheim unter Teck","LAT":48.6521157,"LON":9.4603904,"NUM_YEARS":3,"YIELD":2530,"RANK_#":346,"RANK_%":0.08,"CONTACTID":700},{"SITEID":1051,"CONTID":"K3144","GROUP":"cont","STATUS":"active","ADDRESS":"Jesinger Str. \/Einsteinstr., 73230 Kirchheim unter Teck (Jesingen)","LAT":48.6376161,"LON":9.4723227,"NUM_YEARS":11,"YIELD":16810,"RANK_#":264,"RANK_%":0.14,"CONTACTID":700},{"SITEID":1053,"CONTID":"L0022","GROUP":"cont","STATUS":"active","ADDRESS":"Ringstr. gg\u00fc 12 \/Bonl\u00e4nder Hauptstr., 70794 Filderstadt (Bonlanden)","LAT":48.65671,"LON":9.21827,"NUM_YEARS":10,"YIELD":77240,"RANK_#":7,"RANK_%":0.73,"CONTACTID":700},{"SITEID":1058,"CONTID":"","GROUP":"cont","STATUS":"active","ADDRESS":"Hag\u00e4cker Str. ne20 \/Baedekerstr., 73760 Ostfildern (Kemnat)","LAT":48.7245198,"LON":9.229135,"NUM_YEARS":2,"YIELD":1170,"RANK_#":367,"RANK_%":0.06,"CONTACTID":700},{"SITEID":1059,"CONTID":"","GROUP":"cont","STATUS":"active","ADDRESS":"Theod.-Rothschild-Str. \/Bonhoeffer Str., 73760 Ostfildern (Scharnhauser Park)","LAT":48.7209759,"LON":9.2669332,"NUM_YEARS":1,"YIELD":1340,"RANK_#":271,"RANK_%":0.13,"CONTACTID":700},{"SITEID":1064,"CONTID":"K1729","GROUP":"cont","STATUS":"active","ADDRESS":"Alte Untert\u00fcrkheimer Str. \/zw.d.Br\u00fccken, 70372 Stuttgart (Bad Cannstatt)","LAT":48.8007971,"LON":9.2257416,"NUM_YEARS":11,"YIELD":18020,"RANK_#":242,"RANK_%":0.15,"CONTACTID":700},{"SITEID":1066,"CONTID":"","GROUP":"cont","STATUS":"active","ADDRESS":"Untert\u00fcrkheimer \/Steigstr., 70734 Fellbach","LAT":48.79674,"LON":9.26351,"NUM_YEARS":2,"YIELD":2880,"RANK_#":263,"RANK_%":0.14,"CONTACTID":802},{"SITEID":1070,"CONTID":"L0110","GROUP":"cont","STATUS":"active","ADDRESS":"Kirchheimer Str. \/Adolf-Scheufelen-Str., 73252 Lenningen (Unterlenningen)","LAT":48.5532995,"LON":9.4702398,"NUM_YEARS":9,"YIELD":52900,"RANK_#":21,"RANK_%":0.55,"CONTACTID":803},{"SITEID":1073,"CONTID":"","GROUP":"cont","STATUS":"active","ADDRESS":"Gottlieb-Wolfer \/Rob-Bosch \/Gottl-Daiml, 73770 Denkendorf","LAT":48.697345,"LON":9.3178943,"NUM_YEARS":5,"YIELD":3400,"RANK_#":377,"RANK_%":0.06,"CONTACTID":812},{"SITEID":1076,"CONTID":"K0394","GROUP":"cont","STATUS":"active","ADDRESS":"Buchenteich \/Esslinger Str., 73773 Aichwald (Aichschie\u00df)","LAT":48.7458745,"LON":9.3867255,"NUM_YEARS":10,"YIELD":11400,"RANK_#":304,"RANK_%":0.11,"CONTACTID":700},{"SITEID":1079,"CONTID":"K3126","GROUP":"cont","STATUS":"active","ADDRESS":"Neckarweg \/M\u00fchlwiesenweg, 73257 K\u00f6ngen","LAT":48.6794732,"LON":9.3682973,"NUM_YEARS":11,"YIELD":31030,"RANK_#":119,"RANK_%":0.27,"CONTACTID":700},{"SITEID":1080,"CONTID":"U1515","GROUP":"cont","STATUS":"active","ADDRESS":"Wolfschluger Str. \/Rosenstr., 72631 Aichtal (Gr\u00f6tzingen)","LAT":48.63044,"LON":9.273638,"NUM_YEARS":11,"YIELD":17130,"RANK_#":250,"RANK_%":0.15,"CONTACTID":700},{"SITEID":1081,"CONTID":"L0044","GROUP":"cont","STATUS":"active","ADDRESS":"Industriestr., 73776 Altbach","LAT":48.71942,"LON":9.37771,"NUM_YEARS":11,"YIELD":44530,"RANK_#":56,"RANK_%":0.38,"CONTACTID":807},{"SITEID":1082,"CONTID":"","GROUP":"cont","STATUS":"active","ADDRESS":"R\u00f6merstr. (?), 73732 Esslingen (J\u00e4gerhaus)","LAT":48.7546198,"LON":9.3453415,"NUM_YEARS":2,"YIELD":530,"RANK_#":415,"RANK_%":0.02,"CONTACTID":700},{"SITEID":1083,"CONTID":"","GROUP":"cont","STATUS":"active","ADDRESS":"Ebersp\u00e4cher \/Kurt-Schumacher-Str., 73730 Esslingen (Oberesslingen)","LAT":48.73118,"LON":9.31734,"NUM_YEARS":2,"YIELD":770,"RANK_#":404,"RANK_%":0.04,"CONTACTID":700},{"SITEID":1085,"CONTID":"","GROUP":"cont","STATUS":"active","ADDRESS":"Fritz-M\u00fcller-Str. \/Lilienthalstr., 73730 Esslingen (Oberesslingen)","LAT":48.7271127,"LON":9.3336579,"NUM_YEARS":2,"YIELD":570,"RANK_#":414,"RANK_%":0.03,"CONTACTID":700},{"SITEID":1088,"CONTID":"K3059","GROUP":"cont","STATUS":"active","ADDRESS":"Ostweg 3 \/Ulmer Str., 73262 Reichenbach","LAT":48.7090996,"LON":9.4690987,"NUM_YEARS":11,"YIELD":55180,"RANK_#":33,"RANK_%":0.47,"CONTACTID":700},{"SITEID":1089,"CONTID":"","GROUP":"cont","STATUS":"active","ADDRESS":"Stegweg gg\u00fc 14 \/Lauterstr., 72622 N\u00fcrtingen (Zisishausen)","LAT":48.64493,"LON":9.35327,"NUM_YEARS":3,"YIELD":2400,"RANK_#":354,"RANK_%":0.08,"CONTACTID":700},{"SITEID":1090,"CONTID":"K1747","GROUP":"cont","STATUS":"active","ADDRESS":"Max-Eyth-Str., 72649 Wolfschlugen (Industriegebiet)","LAT":48.6488424,"LON":9.2991945,"NUM_YEARS":11,"YIELD":21060,"RANK_#":198,"RANK_%":0.18,"CONTACTID":700},{"SITEID":1091,"CONTID":"","GROUP":"cont","STATUS":"active","ADDRESS":"Dornierstr. \/Wolf-H\u00fcrth-Str., 73734 Esslingen (Sirnau)","LAT":48.7231046,"LON":9.3094798,"NUM_YEARS":2,"YIELD":670,"RANK_#":411,"RANK_%":0.03,"CONTACTID":700},{"SITEID":1092,"CONTID":"","GROUP":"cont","STATUS":"active","ADDRESS":"Neue Str. \/Im Auchtert, 73230 Kirchheim unter Teck (Nabern)","LAT":48.6153303,"LON":9.4791569,"NUM_YEARS":5,"YIELD":5140,"RANK_#":326,"RANK_%":0.1,"CONTACTID":700},{"SITEID":1097,"CONTID":"","GROUP":"cont","STATUS":"active","ADDRESS":"Kennedy-Allee \/Aldinger Str., 70806 Kornwestheim (Pattonville)","LAT":48.8667401,"LON":9.2034058,"NUM_YEARS":1,"YIELD":540,"RANK_#":385,"RANK_%":0.05,"CONTACTID":819},{"SITEID":1098,"CONTID":"","GROUP":"cont","STATUS":"active","ADDRESS":"Weihindorfer Str., 70839 Gerlingen","LAT":48.7989751,"LON":9.0657713,"NUM_YEARS":1,"YIELD":0,"RANK_#":460,"RANK_%":0,"CONTACTID":700},{"SITEID":1105,"CONTID":"L0093","GROUP":"cont","STATUS":"active","ADDRESS":"Bahnhofstr. \/Rutesheimer Str., 71272 Renningen","LAT":48.7718,"LON":8.93884,"NUM_YEARS":9,"YIELD":20790,"RANK_#":159,"RANK_%":0.22,"CONTACTID":700},{"SITEID":1108,"CONTID":"","GROUP":"cont","STATUS":"active","ADDRESS":"Horber Str. \/Goethestr., 71083 Herrenberg","LAT":48.59067,"LON":8.8673139,"NUM_YEARS":0,"YIELD":0,"RANK_#":459,"RANK_%":0,"CONTACTID":700},{"SITEID":1109,"CONTID":"","GROUP":"cont","STATUS":"active","ADDRESS":"Eb\u00fchl \/Zu Eb\u00fchl, 71083 Herrenberg","LAT":48.5950369,"LON":8.8671577,"NUM_YEARS":0,"YIELD":0,"RANK_#":458,"RANK_%":0,"CONTACTID":700},{"SITEID":1112,"CONTID":"","GROUP":"cont","STATUS":"active","ADDRESS":"Geislinger Str. \/ Aalener Str., 71229 Leonberg","LAT":48.7906814,"LON":8.993385,"NUM_YEARS":1,"YIELD":1230,"RANK_#":296,"RANK_%":0.12,"CONTACTID":700},{"SITEID":1115,"CONTID":"","GROUP":"cont","STATUS":"active","ADDRESS":"Jettinger Str. \/Wendelsteinstr. 1, 71083 Herrenberg (Kuppingen)","LAT":48.6099562,"LON":8.8444257,"NUM_YEARS":0,"YIELD":0,"RANK_#":451,"RANK_%":0,"CONTACTID":700},{"SITEID":1122,"CONTID":"","GROUP":"cont","STATUS":"active","ADDRESS":"August-L\u00e4mmle-Weg gg. 4 \/Kirschenweg, 71229 Leonberg","LAT":48.79637,"LON":9.03017,"NUM_YEARS":1,"YIELD":1000,"RANK_#":340,"RANK_%":0.09,"CONTACTID":700},{"SITEID":1124,"CONTID":"","GROUP":"cont","STATUS":"active","ADDRESS":"Karl-Benz-Str. nb.23 \/Robert-Bosch-Str., 71093 Weil im Sch\u00f6nbuch","LAT":48.6202126,"LON":9.0380455,"NUM_YEARS":3,"YIELD":480,"RANK_#":419,"RANK_%":0.02,"CONTACTID":700},{"SITEID":1128,"CONTID":"","GROUP":"cont","STATUS":"active","ADDRESS":"Beethovenstr. \/Brahmsstr., 71083 Herrenberg","LAT":48.59372,"LON":8.87797,"NUM_YEARS":1,"YIELD":0,"RANK_#":450,"RANK_%":0,"CONTACTID":700},{"SITEID":1129,"CONTID":"","GROUP":"cont","STATUS":"active","ADDRESS":"R\u00f6merstr. \/Schwedenstr., 72119 Ammerbuch (Altingen)","LAT":48.5590614,"LON":8.9067689,"NUM_YEARS":1,"YIELD":0,"RANK_#":447,"RANK_%":0,"CONTACTID":700},{"SITEID":1133,"CONTID":"K0407","GROUP":"cont","STATUS":"active","ADDRESS":"Lerchenstr. \/Drosselweg, 71144 Steinenbronn","LAT":48.6665537,"LON":9.1248635,"NUM_YEARS":9,"YIELD":22290,"RANK_#":154,"RANK_%":0.23,"CONTACTID":700},{"SITEID":1135,"CONTID":"","GROUP":"cont","STATUS":"active","ADDRESS":"Wei\u00dfacher Str. \/Auf der Stiege, 71287 Weissach (Flacht)","LAT":48.8465917,"LON":8.9355824,"NUM_YEARS":0,"YIELD":0,"RANK_#":448,"RANK_%":0,"CONTACTID":700},{"SITEID":1138,"CONTID":"","GROUP":"cont","STATUS":"active","ADDRESS":"Ehrgenzinger Str.\/Bahnhofstra\u00dfe, 72213 Altensteig (Waldorf)","LAT":48.5855445,"LON":8.6093288,"NUM_YEARS":0,"YIELD":0,"RANK_#":449,"RANK_%":0,"CONTACTID":700},{"SITEID":1140,"CONTID":"","GROUP":"cont","STATUS":"active","ADDRESS":"M\u00fcnchinger Str.\/M\u00f6glinger str., 71706 Markgr\u00f6ningen","LAT":48.903478,"LON":9.0865389,"NUM_YEARS":1,"YIELD":0,"RANK_#":452,"RANK_%":0,"CONTACTID":700},{"SITEID":1142,"CONTID":"K2005","GROUP":"cont","STATUS":"active","ADDRESS":"Albert-Schweitzer Str. \/Stuttgarter Str., 70825 Korntal-M\u00fcnchingen (M\u00fcnchingen)","LAT":48.8522933,"LON":9.0982981,"NUM_YEARS":10,"YIELD":10610,"RANK_#":327,"RANK_%":0.1,"CONTACTID":700},{"SITEID":1143,"CONTID":"","GROUP":"cont","STATUS":"active","ADDRESS":"August-Blessing-Str. \/Konrad-Haller Str., 71282 Hemmingen","LAT":48.8653445,"LON":9.0436696,"NUM_YEARS":2,"YIELD":2100,"RANK_#":328,"RANK_%":0.1,"CONTACTID":700},{"SITEID":1148,"CONTID":"","GROUP":"cont","STATUS":"active","ADDRESS":"Stuttgarter Str. \/Rathausstr., 75239 Eberdingen","LAT":48.87949,"LON":8.96409,"NUM_YEARS":1,"YIELD":230,"RANK_#":418,"RANK_%":0.02,"CONTACTID":824},{"SITEID":1150,"CONTID":"","GROUP":"cont","STATUS":"active","ADDRESS":"Max-Eyth-Str. \/Robert-Bosch-Str,, 74385 Pleidelsheim","LAT":48.95415,"LON":9.20079,"NUM_YEARS":2,"YIELD":210,"RANK_#":421,"RANK_%":0.01,"CONTACTID":700},{"SITEID":1153,"CONTID":"","GROUP":"cont","STATUS":"active","ADDRESS":"Im langen Feld\/Bietigheimer Str., 71711 Murr","LAT":48.9580458,"LON":9.2512098,"NUM_YEARS":2,"YIELD":280,"RANK_#":426,"RANK_%":0.01,"CONTACTID":700},{"SITEID":1155,"CONTID":"","GROUP":"cont","STATUS":"active","ADDRESS":"Kirchheimer Str. \/Im Gr\u00e4ble, 74376 Gemmrigheim","LAT":49.03098,"LON":9.15612,"NUM_YEARS":1,"YIELD":0,"RANK_#":457,"RANK_%":0,"CONTACTID":700},{"SITEID":1156,"CONTID":"","GROUP":"cont","STATUS":"active","ADDRESS":"Robert-Bosch-Str. \/Auf dem Kies, 74354 Besigheim","LAT":49.00006,"LON":9.14445,"NUM_YEARS":1,"YIELD":0,"RANK_#":456,"RANK_%":0,"CONTACTID":700},{"SITEID":1157,"CONTID":"","GROUP":"cont","STATUS":"active","ADDRESS":"Lutzstr. \/Bietigheimer Str., 74354 Besigheim","LAT":48.99422,"LON":9.14237,"NUM_YEARS":1,"YIELD":0,"RANK_#":455,"RANK_%":0,"CONTACTID":700},{"SITEID":1158,"CONTID":"","GROUP":"cont","STATUS":"active","ADDRESS":"Gro\u00dfbottwarer Str., 74395 Mundelsheim","LAT":49.00128,"LON":9.21482,"NUM_YEARS":1,"YIELD":0,"RANK_#":454,"RANK_%":0,"CONTACTID":700},{"SITEID":1159,"CONTID":"","GROUP":"cont","STATUS":"active","ADDRESS":"Bietigheimer Str., 74369 L\u00f6chgau","LAT":49.0006738,"LON":9.1053928,"NUM_YEARS":1,"YIELD":0,"RANK_#":453,"RANK_%":0,"CONTACTID":700},{"SITEID":1160,"CONTID":"","GROUP":"cont","STATUS":"active","ADDRESS":"Schwetzinger Str., 69168 Wiesloch","LAT":49.2914667,"LON":8.6832571,"NUM_YEARS":3,"YIELD":7760,"RANK_#":140,"RANK_%":0.24,"CONTACTID":45},{"SITEID":1161,"CONTID":"","GROUP":"cont","STATUS":"active","ADDRESS":"Steinbeissstr 10\/ Ahornstr., 73054 Eislingen\/Fils","LAT":48.6933439,"LON":9.6910498,"NUM_YEARS":4,"YIELD":12330,"RANK_#":104,"RANK_%":0.29,"CONTACTID":782},{"SITEID":1162,"CONTID":"","GROUP":"cont","STATUS":"active","ADDRESS":"Gerhart-Hauptmann-Str. 30, 69221 Dossenheim","LAT":49.4427412,"LON":8.6662683,"NUM_YEARS":4,"YIELD":6330,"RANK_#":238,"RANK_%":0.15,"CONTACTID":3},{"SITEID":1164,"CONTID":"","GROUP":"cont","STATUS":"active","ADDRESS":"Karlstr. gg\u00fc. 19, 73207 Plochingen","LAT":48.7210184,"LON":9.4278276,"NUM_YEARS":1,"YIELD":310,"RANK_#":409,"RANK_%":0.03,"CONTACTID":700},{"SITEID":1166,"CONTID":"","GROUP":"cont","STATUS":"active","ADDRESS":"Mittlere Beutau \/SulzgrieseSteige, 73728 Esslingen (Hohenkreuz)","LAT":48.7384056,"LON":9.3081095,"NUM_YEARS":3,"YIELD":1620,"RANK_#":387,"RANK_%":0.05,"CONTACTID":700},{"SITEID":1171,"CONTID":"K3140","GROUP":"cont","STATUS":"active","ADDRESS":"Keplerstr. gg\u00fc 16 \/Olgastr., 73779 Deizisau","LAT":48.7122684,"LON":9.3916914,"NUM_YEARS":9,"YIELD":11710,"RANK_#":286,"RANK_%":0.12,"CONTACTID":700},{"SITEID":1173,"CONTID":"","GROUP":"cont","STATUS":"active","ADDRESS":"Schillerstr. ne Nr. 40 \/Charlottenweg, 73779 Deizisau","LAT":48.70993,"LON":9.39101,"NUM_YEARS":1,"YIELD":150,"RANK_#":423,"RANK_%":0.01,"CONTACTID":847},{"SITEID":1175,"CONTID":"","GROUP":"cont","STATUS":"active","ADDRESS":"Br\u00fcckenstr. ne Nr. 24 \/Traubenstr., 73240 Wendlingen am Neckar (Wendlingen Nord)","LAT":48.67342,"LON":9.38245,"NUM_YEARS":0,"YIELD":0,"RANK_#":442,"RANK_%":0,"CONTACTID":80116},{"SITEID":1176,"CONTID":"","GROUP":"cont","STATUS":"active","ADDRESS":"Schulstr. gg\u00fc 28 \/Bergstr., 72669 Unterensingen","LAT":48.6585826,"LON":9.3537637,"NUM_YEARS":0,"YIELD":0,"RANK_#":441,"RANK_%":0,"CONTACTID":700},{"SITEID":1177,"CONTID":"","GROUP":"cont","STATUS":"active","ADDRESS":"Austr. ne Nr. 7 \/Kanalstr., 72669 Unterensingen","LAT":48.65527,"LON":9.35697,"NUM_YEARS":0,"YIELD":0,"RANK_#":436,"RANK_%":0,"CONTACTID":700},{"SITEID":1178,"CONTID":"","GROUP":"cont","STATUS":"active","ADDRESS":"Ernst-Sachs-Str. ne 28 \/Einm\u00fc Keplerweg, 73207 Plochingen (Lettenacker)","LAT":48.70646,"LON":9.43342,"NUM_YEARS":0,"YIELD":0,"RANK_#":435,"RANK_%":0,"CONTACTID":700},{"SITEID":1180,"CONTID":"","GROUP":"cont","STATUS":"active","ADDRESS":"Talstr. ne Nr. 13 \/Holzstr, 71404 Korb","LAT":48.83927,"LON":9.36816,"NUM_YEARS":0,"YIELD":0,"RANK_#":434,"RANK_%":0,"CONTACTID":700},{"SITEID":1181,"CONTID":"","GROUP":"cont","STATUS":"active","ADDRESS":"Beethovenstr. ne Nr. 29 \/Friedhofstr., 73650 Winterbach","LAT":48.7956216,"LON":9.4852692,"NUM_YEARS":2,"YIELD":550,"RANK_#":406,"RANK_%":0.03,"CONTACTID":700},{"SITEID":1182,"CONTID":"U1663","GROUP":"cont","STATUS":"active","ADDRESS":"Lindenstr. nb 18 \/Weberstr., 73650 Winterbach","LAT":48.80195,"LON":9.47369,"NUM_YEARS":9,"YIELD":12100,"RANK_#":276,"RANK_%":0.13,"CONTACTID":700},{"SITEID":1183,"CONTID":"K0666","GROUP":"cont","STATUS":"active","ADDRESS":"Gottlieb-Daimler-Str. 14, 71334 Waiblingen (Hegnach)","LAT":48.8519,"LON":9.3,"NUM_YEARS":9,"YIELD":17630,"RANK_#":201,"RANK_%":0.18,"CONTACTID":700},{"SITEID":1185,"CONTID":"","GROUP":"cont","STATUS":"active","ADDRESS":"Im Raisger ne 28 \/Greuth\u00f6lzle, 71337 Waiblingen (Hohenacker)","LAT":48.8617124,"LON":9.3145444,"NUM_YEARS":1,"YIELD":70,"RANK_#":420,"RANK_%":0.01,"CONTACTID":700},{"SITEID":1186,"CONTID":"","GROUP":"cont","STATUS":"active","ADDRESS":"Wirtembergstr. gg\u00fc 30 \/Rechbergstr., 71336 Waiblingen","LAT":48.86786,"LON":9.32023,"NUM_YEARS":1,"YIELD":140,"RANK_#":425,"RANK_%":0.01,"CONTACTID":700},{"SITEID":1188,"CONTID":"","GROUP":"cont","STATUS":"active","ADDRESS":"Ringstr. ne Nr. 70, 70736 Fellbach (Schmiden)","LAT":48.8405086,"LON":9.2677632,"NUM_YEARS":2,"YIELD":1350,"RANK_#":369,"RANK_%":0.06,"CONTACTID":700},{"SITEID":1190,"CONTID":"","GROUP":"cont","STATUS":"active","ADDRESS":"Schlosserstr. ne 55 \/Plieninger Str., 73765 Neuhausen","LAT":48.69129,"LON":9.26719,"NUM_YEARS":0,"YIELD":0,"RANK_#":438,"RANK_%":0,"CONTACTID":700},{"SITEID":1191,"CONTID":"","GROUP":"cont","STATUS":"active","ADDRESS":"Bahnhofstr. \/ Industriestr., 73765 Sielmingen","LAT":48.671066,"LON":9.246758,"NUM_YEARS":0,"YIELD":0,"RANK_#":437,"RANK_%":0,"CONTACTID":830},{"SITEID":1194,"CONTID":"","GROUP":"cont","STATUS":"active","ADDRESS":"Eugen-Adolff-Str. 106 \/Hasenh\u00e4lde, 71522 Backnang","LAT":48.94479,"LON":9.44158,"NUM_YEARS":0,"YIELD":0,"RANK_#":433,"RANK_%":0,"CONTACTID":832},{"SITEID":1195,"CONTID":"","GROUP":"cont","STATUS":"active","ADDRESS":"Riesengebirgstr. ne Nr. 3 \/Ahornstr., 73066 G\u00f6ppingen (Faurndau)","LAT":48.71892,"LON":9.58872,"NUM_YEARS":2,"YIELD":1590,"RANK_#":364,"RANK_%":0.07,"CONTACTID":833},{"SITEID":1197,"CONTID":"","GROUP":"cont","STATUS":"active","ADDRESS":"Kitzb\u00fchler Str. gg\u00fc G+P \/Steinh\u00e4ndlerweg, 71522 Backnang (Maubach)","LAT":48.9471455,"LON":9.4341813,"NUM_YEARS":2,"YIELD":3190,"RANK_#":251,"RANK_%":0.15,"CONTACTID":835},{"SITEID":1198,"CONTID":"","GROUP":"cont","STATUS":"active","ADDRESS":"Kelterweg \/Welzheimer Str., 71554 Weissach im Tal (Unterweissach)","LAT":48.92692,"LON":9.48091,"NUM_YEARS":0,"YIELD":0,"RANK_#":432,"RANK_%":0,"CONTACTID":836},{"SITEID":1218,"CONTID":"L0115","GROUP":"cont","STATUS":"active","ADDRESS":"Asternweg 2 \/Luzernestr., 70771 Leinfelden-Echterdingen (Musberg)","LAT":48.6935937,"LON":9.1275724,"NUM_YEARS":7,"YIELD":19570,"RANK_#":128,"RANK_%":0.26,"CONTACTID":-1},{"SITEID":1219,"CONTID":"","GROUP":"cont","STATUS":"active","ADDRESS":"Haldenstr. nb. 6, 70771 Leinfelden-Echterdingen (Stetten)","LAT":48.6966472,"LON":9.1424274,"NUM_YEARS":7,"YIELD":29530,"RANK_#":52,"RANK_%":0.4,"CONTACTID":-1},{"SITEID":1221,"CONTID":"","GROUP":"cont","STATUS":"active","ADDRESS":"Lindenweg gg\u00fc 8 \/Rehhaldenweg, 73614 Schorndorf (Siedl R\u00f6hrach)","LAT":48.7920503,"LON":9.5314464,"NUM_YEARS":7,"YIELD":8840,"RANK_#":287,"RANK_%":0.12,"CONTACTID":-1},{"SITEID":1222,"CONTID":"K0355","GROUP":"cont","STATUS":"active","ADDRESS":"Banrain nb. 6 \/Akazienweg, 73660 Urbach","LAT":48.860193208894,"LON":9.6183701125,"NUM_YEARS":7,"YIELD":8840,"RANK_#":293,"RANK_%":0.12,"CONTACTID":-1},{"SITEID":1223,"CONTID":"","GROUP":"cont","STATUS":"active","ADDRESS":"R\u00fcckertstr. ne15 \/Roseggerstr., 73054 Eislingen\/Fils","LAT":48.6886918,"LON":9.7052182,"NUM_YEARS":0,"YIELD":0,"RANK_#":440,"RANK_%":0,"CONTACTID":-1},{"SITEID":1224,"CONTID":"","GROUP":"cont","STATUS":"active","ADDRESS":"Heilbronner Str \/Reutlinger Str., 73037 G\u00f6ppingen","LAT":48.69698,"LON":9.67674,"NUM_YEARS":6,"YIELD":24410,"RANK_#":57,"RANK_%":0.38,"CONTACTID":-1},{"SITEID":1231,"CONTID":"K3034","GROUP":"cont","STATUS":"active","ADDRESS":"Turmstr. \/Heuchelbergstr, 74321 Bietigheim-Bissingen (Bietigheim)","LAT":48.96142,"LON":9.11324,"NUM_YEARS":7,"YIELD":34860,"RANK_#":34,"RANK_%":0.47,"CONTACTID":700},{"SITEID":1233,"CONTID":"","GROUP":"cont","STATUS":"active","ADDRESS":"Im Weilerlen \/Geisinger Weg, 74351 Beitigheim-Bissinger","LAT":48.956877,"LON":9.1420955,"NUM_YEARS":1,"YIELD":0,"RANK_#":439,"RANK_%":0,"CONTACTID":-1},{"SITEID":1235,"CONTID":"K0632","GROUP":"cont","STATUS":"active","ADDRESS":"Alte Kirchheimerstr \/Im Greutle, 73230 Kirchheim unter Teck (Nabern)","LAT":48.6187673,"LON":9.479219,"NUM_YEARS":7,"YIELD":5900,"RANK_#":360,"RANK_%":0.08,"CONTACTID":-1},{"SITEID":1236,"CONTID":"L0004","GROUP":"cont","STATUS":"active","ADDRESS":"Ringstr. gg\u00fc 12 \/Bonl\u00e4nder Hauptstr., 70794 Filderstadt (Bonlanden)","LAT":48.65671,"LON":9.21827,"NUM_YEARS":7,"YIELD":70840,"RANK_#":2,"RANK_%":0.95,"CONTACTID":-1},{"SITEID":1237,"CONTID":"","GROUP":"cont","STATUS":"active","ADDRESS":"Maybachstr \/Max-Lang-Str., 70771 Leinfelden-Echterdingen (Leinfelden)","LAT":48.698039,"LON":9.1445623,"NUM_YEARS":0,"YIELD":0,"RANK_#":427,"RANK_%":0,"CONTACTID":-1},{"SITEID":2007,"CONTID":"H3038","GROUP":"cont","STATUS":"active","ADDRESS":"Unterer Grund \/Pfarrhausstr, 70563 Stuttgart (Vaihingen)","LAT":48.7337397,"LON":9.1091631,"NUM_YEARS":7,"YIELD":42350,"RANK_#":19,"RANK_%":0.57,"CONTACTID":850},{"SITEID":2008,"CONTID":"K2097","GROUP":"cont","STATUS":"active","ADDRESS":"Zettachring, 70567 Stuttgart (Fasanenhof)","LAT":48.708675,"LON":9.1719953,"NUM_YEARS":7,"YIELD":4210,"RANK_#":374,"RANK_%":0.06,"CONTACTID":851},{"SITEID":2015,"CONTID":"L0098","GROUP":"cont","STATUS":"active","ADDRESS":"Mittenfeldstr. 45, 70499 Stuttgart (Giebel)","LAT":48.8050527,"LON":9.0875688,"NUM_YEARS":7,"YIELD":19400,"RANK_#":123,"RANK_%":0.26,"CONTACTID":855},{"SITEID":2017,"CONTID":"K2108","GROUP":"cont","STATUS":"active","ADDRESS":"Endelbangstr., 70563 Stuttgart (Vaihingen)","LAT":48.7452837,"LON":9.1104929,"NUM_YEARS":7,"YIELD":15390,"RANK_#":169,"RANK_%":0.21,"CONTACTID":856},{"SITEID":2021,"CONTID":"L0080","GROUP":"cont","STATUS":"active","ADDRESS":"Herbertstr. gg\u00fc 92 \/Heutingsheimerstr., 70439 Stuttgart (Stammheim)","LAT":48.842955,"LON":9.1619287,"NUM_YEARS":7,"YIELD":45130,"RANK_#":14,"RANK_%":0.61,"CONTACTID":700},{"SITEID":2034,"CONTID":"L0108","GROUP":"cont","STATUS":"active","ADDRESS":"F\u00fcrfelder Str 12 \/Auricher Str., 70437 Stuttgart (Rot)","LAT":48.8304714,"LON":9.1892388,"NUM_YEARS":7,"YIELD":15030,"RANK_#":178,"RANK_%":0.2,"CONTACTID":860},{"SITEID":2094,"CONTID":"L0089","GROUP":"cont","STATUS":"active","ADDRESS":"Im Holder gg\u00fc 14 \/Am Br\u00fcnnelesberg, 73760 Ostfildern (Ruit)","LAT":48.7340012,"LON":9.2555343,"NUM_YEARS":7,"YIELD":24290,"RANK_#":77,"RANK_%":0.33,"CONTACTID":700},{"SITEID":2104,"CONTID":"","GROUP":"cont","STATUS":"active","ADDRESS":"Graf-Leutrum-Str gg\u00fc 42 \/Varnb\u00fchlerstr, 71229 Leonberg (H\u00f6fingen)","LAT":48.7960447,"LON":9.0095706,"NUM_YEARS":4,"YIELD":14350,"RANK_#":71,"RANK_%":0.34,"CONTACTID":700},{"SITEID":2107,"CONTID":"L0081","GROUP":"cont","STATUS":"active","ADDRESS":"Leiterweg gg\u00fc 29 \/Friedhofstr, 71254 Ditzingen (Hirschlander)","LAT":48.8380355,"LON":9.0403204,"NUM_YEARS":7,"YIELD":37750,"RANK_#":28,"RANK_%":0.51,"CONTACTID":700},{"SITEID":2110,"CONTID":"L0085","GROUP":"cont","STATUS":"active","ADDRESS":"Bahnhofstr 31 \/Ulandsstr., 71282 Hemmingen (Hemmingen)","LAT":48.86528,"LON":9.0338595,"NUM_YEARS":7,"YIELD":12160,"RANK_#":235,"RANK_%":0.16,"CONTACTID":700},{"SITEID":2111,"CONTID":"H0858","GROUP":"cont","STATUS":"active","ADDRESS":"Korntaler Str \/Christina-Blind-Str, 70825 Korntal-M\u00fcnchingen (M\u00fcnchingen)","LAT":48.8505563,"LON":9.0932026,"NUM_YEARS":7,"YIELD":41520,"RANK_#":20,"RANK_%":0.56,"CONTACTID":700},{"SITEID":2113,"CONTID":"L0055","GROUP":"cont","STATUS":"active","ADDRESS":"Markomannenstr. 11 \/Echterdinger Str, 70771 Leinfelden-Echterdingen (Leinfelden)","LAT":48.6925,"LON":9.14616,"NUM_YEARS":7,"YIELD":14290,"RANK_#":190,"RANK_%":0.19,"CONTACTID":700},{"SITEID":2126,"CONTID":"L0043","GROUP":"cont","STATUS":"active","ADDRESS":"Kranzhaldenstr 19 \/Br\u00fchlstr, 73249 Wernau","LAT":48.6809419,"LON":9.4284734,"NUM_YEARS":7,"YIELD":35550,"RANK_#":31,"RANK_%":0.48,"CONTACTID":700},{"SITEID":2127,"CONTID":"K3150","GROUP":"cont","STATUS":"active","ADDRESS":"Max-Eyth-Str 66\/64 \/Einsteinstr., 73249 Wernau","LAT":48.68063,"LON":9.42264,"NUM_YEARS":7,"YIELD":5610,"RANK_#":352,"RANK_%":0.08,"CONTACTID":700},{"SITEID":2128,"CONTID":"U1461","GROUP":"cont","STATUS":"active","ADDRESS":"Lindenstr. 59\/60  \/ Brunnenstr., 73249 Wernau","LAT":48.69107,"LON":9.41151,"NUM_YEARS":7,"YIELD":11340,"RANK_#":249,"RANK_%":0.15,"CONTACTID":700},{"SITEID":2129,"CONTID":"K0745","GROUP":"cont","STATUS":"active","ADDRESS":"Gottlieb-Wolfer-Str.15 \/Kirckheimerstr., 73249 Wernau","LAT":48.6886111,"LON":9.4222222,"NUM_YEARS":7,"YIELD":5630,"RANK_#":348,"RANK_%":0.08,"CONTACTID":700},{"SITEID":2135,"CONTID":"K2040","GROUP":"cont","STATUS":"active","ADDRESS":"Stuttgarterstr. gg\u00fc 125 \/ Herderstr., 73230 Kirchheim unter Teck (\u00d6tlingen)","LAT":48.6546711,"LON":9.4284722,"NUM_YEARS":6,"YIELD":6980,"RANK_#":310,"RANK_%":0.11,"CONTACTID":700},{"SITEID":2137,"CONTID":"K0620","GROUP":"cont","STATUS":"active","ADDRESS":"Randecker-Maarstr. \/In den Grunwiesen, 73266 Bissingen an der Teck (Ochsenwang)","LAT":48.6006493,"LON":9.4914815,"NUM_YEARS":6,"YIELD":5730,"RANK_#":338,"RANK_%":0.09,"CONTACTID":700},{"SITEID":2143,"CONTID":"L2012","GROUP":"cont","STATUS":"active","ADDRESS":"Gablonzerweg gg\u00fc 5-9 \/Danzigerweg, 71696 M\u00f6glingen","LAT":48.8893094,"LON":9.1317484,"NUM_YEARS":7,"YIELD":20520,"RANK_#":108,"RANK_%":0.28,"CONTACTID":700},{"SITEID":2146,"CONTID":"K2053","GROUP":"cont","STATUS":"active","ADDRESS":"Rheinstr gg\u00fc 8 \/S\u00fcdliche Alleen, 71679 Asperg","LAT":48.9065017,"LON":9.141133,"NUM_YEARS":7,"YIELD":7320,"RANK_#":329,"RANK_%":0.1,"CONTACTID":700},{"SITEID":2147,"CONTID":"H0776","GROUP":"cont","STATUS":"active","ADDRESS":"Alleenstr gg\u00fc 57 \/ Im Dornenbusch, 71679 Asperg","LAT":48.9065017,"LON":9.141133,"NUM_YEARS":7,"YIELD":20480,"RANK_#":115,"RANK_%":0.28,"CONTACTID":700},{"SITEID":2148,"CONTID":"L0002","GROUP":"cont","STATUS":"active","ADDRESS":"Achalmstr 1 \/ Eisenbahnstr, 71679 Asperg","LAT":48.90642,"LON":9.14955,"NUM_YEARS":7,"YIELD":18200,"RANK_#":144,"RANK_%":0.24,"CONTACTID":700},{"SITEID":2150,"CONTID":"L0065","GROUP":"cont","STATUS":"active","ADDRESS":"Forststr. \/ Blumenhartstr, 70771 Leinfelden-Echterdingen (Stetten)","LAT":48.6966472,"LON":9.1424274,"NUM_YEARS":7,"YIELD":11690,"RANK_#":232,"RANK_%":0.16,"CONTACTID":700},{"SITEID":2151,"CONTID":"L0018","GROUP":"cont","STATUS":"active","ADDRESS":"R\u00f6merstr gg\u00fc 95 \/Finkenstr, 70794 Filderstadt (Plattenhardt)","LAT":48.65697,"LON":9.18831,"NUM_YEARS":7,"YIELD":35610,"RANK_#":30,"RANK_%":0.48,"CONTACTID":700},{"SITEID":2154,"CONTID":"U1548","GROUP":"cont","STATUS":"active","ADDRESS":"Kleiststr 23 \/ImVogelsang, 70794 Filderstadt (Bonlanden)","LAT":48.6775827,"LON":9.215385,"NUM_YEARS":7,"YIELD":21720,"RANK_#":102,"RANK_%":0.29,"CONTACTID":700},{"SITEID":2166,"CONTID":"","GROUP":"cont","STATUS":"active","ADDRESS":"Hermann-Hess-Str. \/Ulandsstr, 70825 Korntal-M\u00fcnchingen (Korntal)","LAT":48.8299073,"LON":9.1218071,"NUM_YEARS":4,"YIELD":9050,"RANK_#":171,"RANK_%":0.21,"CONTACTID":700},{"SITEID":2173,"CONTID":"L0010","GROUP":"cont","STATUS":"active","ADDRESS":"Stettiner Str. \/Lise-Meitner-Str, 71701 Schwieberdingen (H\u00fclbe IV)","LAT":48.8703616,"LON":9.0812753,"NUM_YEARS":7,"YIELD":22650,"RANK_#":95,"RANK_%":0.3,"CONTACTID":700},{"SITEID":2174,"CONTID":"L0039","GROUP":"cont","STATUS":"active","ADDRESS":"Strohg\u00e4urig \/Ulmenweg, 71254 Ditzingen (Heimerdingen)","LAT":48.84851,"LON":8.97633,"NUM_YEARS":7,"YIELD":13990,"RANK_#":182,"RANK_%":0.19,"CONTACTID":700},{"SITEID":2175,"CONTID":"K1739","GROUP":"cont","STATUS":"active","ADDRESS":"Iptinger Weg nb. 5 \/Weissacher Str, 71254 Ditzingen (Heimerdingen)","LAT":48.851972,"LON":8.9780044,"NUM_YEARS":7,"YIELD":20880,"RANK_#":107,"RANK_%":0.28,"CONTACTID":700},{"SITEID":2176,"CONTID":"L0046","GROUP":"cont","STATUS":"active","ADDRESS":"Hauptstr gg\u00fc 99 \/Kreisverkehr Bhf, 73230 Esslingen (Zell)","LAT":48.7433425,"LON":9.3201122,"NUM_YEARS":7,"YIELD":7100,"RANK_#":314,"RANK_%":0.1,"CONTACTID":700},{"SITEID":2177,"CONTID":"","GROUP":"cont","STATUS":"active","ADDRESS":"Oderstr. gg\u00fc 65 \/Heidenheimerstr., 73529 Schw\u00e4bisch Gm\u00fcnd (Oberbettringen)","LAT":48.7935841,"LON":9.829234,"NUM_YEARS":6,"YIELD":19330,"RANK_#":94,"RANK_%":0.3,"CONTACTID":700},{"SITEID":2178,"CONTID":"","GROUP":"cont","STATUS":"active","ADDRESS":"R\u00f6merstr gg\u00fc 18 \/Seelenbachstr, 73525 Schw\u00e4bisch Gm\u00fcnd","LAT":48.7937685,"LON":9.7988852,"NUM_YEARS":7,"YIELD":12760,"RANK_#":213,"RANK_%":0.17,"CONTACTID":700},{"SITEID":2181,"CONTID":"K3033","GROUP":"cont","STATUS":"active","ADDRESS":"Stuttgarterstr gg\u00fc 17 \/Ulmerstr, 71732 Tamm","LAT":48.92613,"LON":9.13968,"NUM_YEARS":7,"YIELD":23260,"RANK_#":92,"RANK_%":0.31,"CONTACTID":865},{"SITEID":2182,"CONTID":"L0006","GROUP":"cont","STATUS":"active","ADDRESS":"Pappelweg gg\u00fc 54 \/Ulmerstr, 71069 Sindelfingen (Maichingen)","LAT":48.7078106,"LON":8.9618345,"NUM_YEARS":7,"YIELD":17180,"RANK_#":149,"RANK_%":0.23,"CONTACTID":700},{"SITEID":2190,"CONTID":"K3076","GROUP":"cont","STATUS":"active","ADDRESS":"Echterdingerstr gg\u00fc 72 \/ Meisenweg, 71111 Waldenbuch (Kalkofen)","LAT":48.6445406,"LON":9.1396817,"NUM_YEARS":7,"YIELD":28020,"RANK_#":58,"RANK_%":0.38,"CONTACTID":700},{"SITEID":2191,"CONTID":"K2057","GROUP":"cont","STATUS":"active","ADDRESS":"Neuweiler Weg gg\u00fc 20 \/Forchenweg, 71111 Waldenbuch","LAT":48.6358749,"LON":9.1216586,"NUM_YEARS":7,"YIELD":9670,"RANK_#":275,"RANK_%":0.13,"CONTACTID":700},{"SITEID":2198,"CONTID":"K0430","GROUP":"cont","STATUS":"active","ADDRESS":"Robert-Bosch-Str \/Wilhelm-Maybach-Str, 72622 N\u00fcrtingen","LAT":48.61448,"LON":9.33408,"NUM_YEARS":6,"YIELD":21970,"RANK_#":73,"RANK_%":0.34,"CONTACTID":700},{"SITEID":2199,"CONTID":"K3152","GROUP":"cont","STATUS":"active","ADDRESS":"Schwabstr. \/Lessingstr., 73773 Aichtal (Rudolfsh\u00f6he)","LAT":48.63104,"LON":9.24961,"NUM_YEARS":7,"YIELD":34730,"RANK_#":36,"RANK_%":0.47,"CONTACTID":700},{"SITEID":2201,"CONTID":"H0626","GROUP":"cont","STATUS":"active","ADDRESS":"Hauffstr 66 \/Gr\u00f6tzinger Str., 72622 N\u00fcrtingen (Oberensingen)","LAT":48.624421,"LON":9.3469069,"NUM_YEARS":6,"YIELD":16420,"RANK_#":121,"RANK_%":0.26,"CONTACTID":700},{"SITEID":2202,"CONTID":"K0046","GROUP":"cont","STATUS":"active","ADDRESS":"Eichendorff gg\u00fc 15\/17 \/Schulzeweg, 72622 N\u00fcrtingen","LAT":48.624421,"LON":9.3469069,"NUM_YEARS":6,"YIELD":8560,"RANK_#":270,"RANK_%":0.13,"CONTACTID":700},{"SITEID":2207,"CONTID":"L0056","GROUP":"cont","STATUS":"active","ADDRESS":"Im Hag \/Schimmingweg, 73230 Kirchheim unter Teck (Siedl. N\u00e4gelestal)","LAT":48.6421685,"LON":9.437624,"NUM_YEARS":7,"YIELD":14610,"RANK_#":176,"RANK_%":0.2,"CONTACTID":700},{"SITEID":2208,"CONTID":"K0274","GROUP":"cont","STATUS":"active","ADDRESS":"Schlesierstr gg\u00fc 6 \/Ostpreu\u00dfenweg, 72622 N\u00fcrtingen (Enzenhardtsiedlung)","LAT":48.60928,"LON":9.32427,"NUM_YEARS":6,"YIELD":5770,"RANK_#":344,"RANK_%":0.09,"CONTACTID":700},{"SITEID":2220,"CONTID":"K2062","GROUP":"cont","STATUS":"active","ADDRESS":"St\u00e4udach \/Jahnstr., 71093 Weil im Sch\u00f6nbuch","LAT":48.61369,"LON":9.06698,"NUM_YEARS":7,"YIELD":12580,"RANK_#":211,"RANK_%":0.17,"CONTACTID":700},{"SITEID":2221,"CONTID":"K2007","GROUP":"cont","STATUS":"active","ADDRESS":"Wolfgrube gg\u00fc 7 \/ Fuchsweg, 71093 Weil im Sch\u00f6nbuch","LAT":48.62219,"LON":9.06995,"NUM_YEARS":6,"YIELD":6290,"RANK_#":321,"RANK_%":0.1,"CONTACTID":700},{"SITEID":2222,"CONTID":"H0433","GROUP":"cont","STATUS":"active","ADDRESS":"In den Belzwiesen, 71093 Weil im Sch\u00f6nbuch (Neuweiler)","LAT":48.63951,"LON":9.06432,"NUM_YEARS":7,"YIELD":14210,"RANK_#":192,"RANK_%":0.19,"CONTACTID":700},{"SITEID":2226,"CONTID":"K1738","GROUP":"cont","STATUS":"active","ADDRESS":"Am Waldrand 1\/ Liebenaustr, 71111 Waldenbuch (Liebenau)","LAT":48.63904,"LON":9.14319,"NUM_YEARS":6,"YIELD":27310,"RANK_#":40,"RANK_%":0.43,"CONTACTID":700},{"SITEID":2241,"CONTID":"L0031","GROUP":"cont","STATUS":"active","ADDRESS":"Im Morgen \/Kastanienweg, 73095 Albershausen","LAT":48.69644,"LON":9.5614,"NUM_YEARS":6,"YIELD":10260,"RANK_#":223,"RANK_%":0.16,"CONTACTID":700},{"SITEID":2243,"CONTID":"H0638","GROUP":"cont","STATUS":"active","ADDRESS":"Ziegelei \/Kirchstr., 73765 Neuhausen auf den Fildern","LAT":48.6798365,"LON":9.2799597,"NUM_YEARS":6,"YIELD":28870,"RANK_#":38,"RANK_%":0.45,"CONTACTID":700},{"SITEID":2244,"CONTID":"K0441","GROUP":"cont","STATUS":"active","ADDRESS":"Lettenstr. \/Hirtenweg, 73765 Neuhausen auf den Fildern","LAT":48.6815126,"LON":9.2730076,"NUM_YEARS":6,"YIELD":10900,"RANK_#":212,"RANK_%":0.17,"CONTACTID":700},{"SITEID":2248,"CONTID":"L0030","GROUP":"cont","STATUS":"active","ADDRESS":"Fichtenstr \/Wannenstr, 71296 Heimsheim","LAT":48.8084258,"LON":8.8696826,"NUM_YEARS":6,"YIELD":8620,"RANK_#":254,"RANK_%":0.14,"CONTACTID":700},{"SITEID":2251,"CONTID":"K2003","GROUP":"cont","STATUS":"active","ADDRESS":"Seehausstr \/Nordstr., 71299 Wimsheim","LAT":48.8531099,"LON":8.8221272,"NUM_YEARS":6,"YIELD":8010,"RANK_#":281,"RANK_%":0.13,"CONTACTID":700},{"SITEID":2265,"CONTID":"","GROUP":"cont","STATUS":"active","ADDRESS":"Sonnenbergstr \/Dahlienweg, 71665 Vaihingen an der Enz (Aurich)","LAT":48.9133719,"LON":8.9435125,"NUM_YEARS":6,"YIELD":26770,"RANK_#":47,"RANK_%":0.42,"CONTACTID":700},{"SITEID":2271,"CONTID":"K0381","GROUP":"cont","STATUS":"active","ADDRESS":"Zum vorderen Weinberg 13 \/Knieselweg, 71665 Vaihingen an der Enz (Horrheim)","LAT":48.9837,"LON":8.99027,"NUM_YEARS":6,"YIELD":18280,"RANK_#":97,"RANK_%":0.29,"CONTACTID":700},{"SITEID":2274,"CONTID":"K0757","GROUP":"cont","STATUS":"active","ADDRESS":"Rilkeweg \/Fron\u00e4ckerweg, 71101 Sch\u00f6naich","LAT":48.6536664,"LON":9.0677811,"NUM_YEARS":6,"YIELD":5370,"RANK_#":345,"RANK_%":0.08,"CONTACTID":700},{"SITEID":2285,"CONTID":"K3015","GROUP":"cont","STATUS":"active","ADDRESS":"Tulpenstr. gg\u00fc. 3 \/Talstr, 71394 Kernen im Remstal (Rommelhausen)","LAT":48.8088421,"LON":9.3203231,"NUM_YEARS":6,"YIELD":37450,"RANK_#":16,"RANK_%":0.59,"CONTACTID":700},{"SITEID":2290,"CONTID":"K3027","GROUP":"cont","STATUS":"active","ADDRESS":"Stuttgarter Str. 66 \/gg\u00fc. Aldi & Toom, 70736 Fellbach","LAT":48.8405086,"LON":9.2677632,"NUM_YEARS":6,"YIELD":44780,"RANK_#":8,"RANK_%":0.7,"CONTACTID":700},{"SITEID":2297,"CONTID":"L0050","GROUP":"cont","STATUS":"active","ADDRESS":"Kirchheimer Str. \/Adolf-Scheufelen-Str., 73252 Lenningen (Unterlenningen)","LAT":48.5532995,"LON":9.4702398,"NUM_YEARS":6,"YIELD":33980,"RANK_#":24,"RANK_%":0.53,"CONTACTID":803},{"SITEID":2299,"CONTID":"","GROUP":"cont","STATUS":"active","ADDRESS":"Oderstr. gg\u00fc 65 \/Heidenheimerstr., 73529 Schw\u00e4bisch Gm\u00fcnd (Oberbettringen)","LAT":48.7935841,"LON":9.829234,"NUM_YEARS":6,"YIELD":18690,"RANK_#":99,"RANK_%":0.29,"CONTACTID":700},{"SITEID":2300,"CONTID":"L0127","GROUP":"cont","STATUS":"active","ADDRESS":"Sankt-Joh\u00e4nnser-Ring nb. 35 \/Unter Eck, 71665 Vaihingen an der Enz (Enzweihingen)","LAT":48.9164524,"LON":8.9738635,"NUM_YEARS":6,"YIELD":15390,"RANK_#":143,"RANK_%":0.24,"CONTACTID":700},{"SITEID":2314,"CONTID":"","GROUP":"cont","STATUS":"active","ADDRESS":"Im Riedenberg gg\u00fc 32 \/Erlachstr., 70771 Leinfelden-Echterdingen (Stetten)","LAT":48.66441,"LON":9.17459,"NUM_YEARS":6,"YIELD":13520,"RANK_#":167,"RANK_%":0.21,"CONTACTID":700},{"SITEID":2318,"CONTID":"K1741","GROUP":"cont","STATUS":"active","ADDRESS":"Goethestr. gg\u00fc 14 \/Kaiserstr., 72793 Pfullingen","LAT":48.47218,"LON":9.22903,"NUM_YEARS":6,"YIELD":23400,"RANK_#":63,"RANK_%":0.37,"CONTACTID":700},{"SITEID":2319,"CONTID":"K2084","GROUP":"cont","STATUS":"active","ADDRESS":"Hofbaumg\u00e4rten \/Br\u00fchlstr., 73230 Kirchheim unter Teck (Nabern)","LAT":48.6184082,"LON":9.4838898,"NUM_YEARS":6,"YIELD":5840,"RANK_#":332,"RANK_%":0.09,"CONTACTID":700},{"SITEID":2325,"CONTID":"K2090","GROUP":"cont","STATUS":"active","ADDRESS":"Bahnhofstr. gg\u00fc 26 \/Rei\u00dfenbachstr., 72805 Lichtenstein (Unterhausen)","LAT":48.4274895,"LON":9.2547395,"NUM_YEARS":6,"YIELD":18030,"RANK_#":113,"RANK_%":0.28,"CONTACTID":700},{"SITEID":2326,"CONTID":"K2034","GROUP":"cont","STATUS":"active","ADDRESS":"Theodor-Fontane-Str gg\u00fc 8 \/Eichendorffst, 72805 Lichtenstein","LAT":48.40604,"LON":9.2564,"NUM_YEARS":6,"YIELD":13130,"RANK_#":170,"RANK_%":0.21,"CONTACTID":700},{"SITEID":2333,"CONTID":"L0012","GROUP":"cont","STATUS":"active","ADDRESS":"Obere Loderwiesen \/Raidwanger Str, 72622 N\u00fcrtingen (Neckarhausen)","LAT":48.6132821,"LON":9.3077535,"NUM_YEARS":6,"YIELD":10310,"RANK_#":233,"RANK_%":0.16,"CONTACTID":700},{"SITEID":2334,"CONTID":"K2091","GROUP":"cont","STATUS":"active","ADDRESS":"Hohenneuffener Str. \/Burgweg, 72666 Neckartailfingen","LAT":48.60994,"LON":9.27059,"NUM_YEARS":6,"YIELD":14550,"RANK_#":152,"RANK_%":0.23,"CONTACTID":700},{"SITEID":2335,"CONTID":"K1733","GROUP":"cont","STATUS":"active","ADDRESS":"Ringstr. gg\u00fc 12 \/Bonl\u00e4nder Hauptstr., 70794 Filderstadt (Bonlanden)","LAT":48.65671,"LON":9.21827,"NUM_YEARS":6,"YIELD":60540,"RANK_#":3,"RANK_%":0.95,"CONTACTID":700},{"SITEID":2350,"CONTID":"K0208","GROUP":"cont","STATUS":"active","ADDRESS":"Silberburgstr. gg\u00fc 3 \/Hauptsstr, 71154 Nufringen","LAT":48.623414,"LON":8.8897002,"NUM_YEARS":6,"YIELD":10920,"RANK_#":222,"RANK_%":0.17,"CONTACTID":868},{"SITEID":2352,"CONTID":"K3037","GROUP":"cont","STATUS":"active","ADDRESS":"R\u00f6merstr gg\u00fc 95 \/Finkenstr, 70794 Filderstadt (Plattenhardt)","LAT":48.65697,"LON":9.18831,"NUM_YEARS":6,"YIELD":26510,"RANK_#":45,"RANK_%":0.42,"CONTACTID":700},{"SITEID":2369,"CONTID":"U2004","GROUP":"cont","STATUS":"active","ADDRESS":"Albstr. nb 3 \/Raiffeisenstr., 72631 Aichtal (Gr\u00f6tzingen)","LAT":48.62725,"LON":9.25788,"NUM_YEARS":6,"YIELD":15630,"RANK_#":129,"RANK_%":0.25,"CONTACTID":700},{"SITEID":2376,"CONTID":"K3042","GROUP":"cont","STATUS":"active","ADDRESS":"Fritz-M\u00fcller-Str. gg\u00fc 88 \/Max-Planck-Str, 73730 Esslingen (Oberesslingen)","LAT":48.72436,"LON":9.3407,"NUM_YEARS":6,"YIELD":6710,"RANK_#":307,"RANK_%":0.11,"CONTACTID":700},{"SITEID":2380,"CONTID":"K2089","GROUP":"cont","STATUS":"active","ADDRESS":"B\u00fchlweg gg\u00fc 46 \/Seestr., 71336 Waiblingen (Neustadt)","LAT":48.84755,"LON":9.32639,"NUM_YEARS":6,"YIELD":7910,"RANK_#":285,"RANK_%":0.12,"CONTACTID":700},{"SITEID":2387,"CONTID":"L0069","GROUP":"cont","STATUS":"active","ADDRESS":"Elisabeth-Selbert-Str \/Gertrud-B.-Allee, 71364 Winnenden","LAT":48.8750046,"LON":9.3971423,"NUM_YEARS":6,"YIELD":25720,"RANK_#":53,"RANK_%":0.4,"CONTACTID":700},{"SITEID":2390,"CONTID":"K0183","GROUP":"cont","STATUS":"active","ADDRESS":"Sch\u00f6nbergstr. gg\u00fc 7 \/Neuffenstr., 72127 Kusterdingen (Wankheim)","LAT":48.49885,"LON":9.08957,"NUM_YEARS":6,"YIELD":6470,"RANK_#":323,"RANK_%":0.1,"CONTACTID":700},{"SITEID":2393,"CONTID":"K0641","GROUP":"cont","STATUS":"active","ADDRESS":"Silvanerstr gg\u00fc. 18 \/Burgunderweg, 72766 Reutlingen (Mittelstadt)","LAT":48.5656,"LON":9.23144,"NUM_YEARS":6,"YIELD":6360,"RANK_#":313,"RANK_%":0.1,"CONTACTID":700},{"SITEID":2394,"CONTID":"K0119","GROUP":"cont","STATUS":"active","ADDRESS":"Hegwiesenstr \/ Gutenberg Halle, 72585 Riederich","LAT":48.5585981,"LON":9.2658082,"NUM_YEARS":6,"YIELD":27630,"RANK_#":39,"RANK_%":0.43,"CONTACTID":700},{"SITEID":2395,"CONTID":"K0575","GROUP":"cont","STATUS":"active","ADDRESS":"Rothenb\u00fchlstr gg\u00fc 15 \/In der Bleiche, 71364 Winnenden (Hertmannsweiler)","LAT":48.8891598,"LON":9.4245484,"NUM_YEARS":6,"YIELD":8340,"RANK_#":282,"RANK_%":0.13,"CONTACTID":700},{"SITEID":2405,"CONTID":"K0753","GROUP":"cont","STATUS":"active","ADDRESS":"Stettener Str \/Lu\u00dfackerweg, 71384 Weinstadt","LAT":48.8091209,"LON":9.3528493,"NUM_YEARS":6,"YIELD":14740,"RANK_#":156,"RANK_%":0.23,"CONTACTID":700},{"SITEID":2409,"CONTID":"K0458","GROUP":"cont","STATUS":"active","ADDRESS":"M\u00fchlenstr. nb 59 \/Ahornweg, 72585 Riederich","LAT":48.5557,"LON":9.27248,"NUM_YEARS":6,"YIELD":9990,"RANK_#":230,"RANK_%":0.16,"CONTACTID":700},{"SITEID":2419,"CONTID":"K2064","GROUP":"cont","STATUS":"active","ADDRESS":"Olgastr. gg\u00fc 20 \/Osterstr., 73630 Remshalden","LAT":48.81861,"LON":9.42287,"NUM_YEARS":6,"YIELD":12590,"RANK_#":177,"RANK_%":0.2,"CONTACTID":869},{"SITEID":2421,"CONTID":"K2006","GROUP":"cont","STATUS":"active","ADDRESS":"Tannenweg 1 \/Buchhaldenstr., 71134 Aidlingen","LAT":48.6781708,"LON":8.8897239,"NUM_YEARS":6,"YIELD":11800,"RANK_#":209,"RANK_%":0.18,"CONTACTID":700},{"SITEID":2422,"CONTID":"U1501","GROUP":"cont","STATUS":"active","ADDRESS":"Bahnhofstr. gg\u00fc 77 \/G\u00fcnther-Irmscher-Str, 73630 Remshalden (Grunbach)","LAT":48.81186,"LON":9.42041,"NUM_YEARS":6,"YIELD":5200,"RANK_#":350,"RANK_%":0.08,"CONTACTID":700},{"SITEID":2423,"CONTID":"K0130","GROUP":"cont","STATUS":"active","ADDRESS":"R\u00f6merstr. 2 \/Sonnenbergstr. 2, 73630 Remshalden (Rohrbronn)","LAT":48.8141269,"LON":9.4644316,"NUM_YEARS":6,"YIELD":8950,"RANK_#":261,"RANK_%":0.14,"CONTACTID":869},{"SITEID":2424,"CONTID":"K0309","GROUP":"cont","STATUS":"active","ADDRESS":"Steinenbolstr. \/Elisenweg, 72793 Pfullingen","LAT":48.4659778,"LON":9.2348553,"NUM_YEARS":6,"YIELD":7510,"RANK_#":292,"RANK_%":0.12,"CONTACTID":700},{"SITEID":2425,"CONTID":"","GROUP":"cont","STATUS":"active","ADDRESS":"Kirchentellinsfurter Str. (K6903) \/Heust, 72127 Kusterdingen","LAT":48.4897476,"LON":9.1021845,"NUM_YEARS":6,"YIELD":5900,"RANK_#":342,"RANK_%":0.09,"CONTACTID":700},{"SITEID":2426,"CONTID":"K2034","GROUP":"cont","STATUS":"active","ADDRESS":"Jetteburger Str. gg\u00fc 9 \/Br\u00fchlstr, 72127 Kusterdingen (M\u00e4hringen)","LAT":48.4865697,"LON":9.1114848,"NUM_YEARS":6,"YIELD":8000,"RANK_#":277,"RANK_%":0.13,"CONTACTID":872},{"SITEID":2433,"CONTID":"K2110","GROUP":"cont","STATUS":"active","ADDRESS":"G\u00e4ns\u00e4ckerstr. \/Burg\u00e4ckerstr., 75365 Calw (Stammheim)","LAT":48.69776,"LON":8.77535,"NUM_YEARS":6,"YIELD":12950,"RANK_#":173,"RANK_%":0.2,"CONTACTID":700},{"SITEID":2441,"CONTID":"K3085","GROUP":"cont","STATUS":"active","ADDRESS":"Kappish\u00e4user Str \/Sudetenstr., 72581 Dettingen an der Erms","LAT":48.53323,"LON":9.33898,"NUM_YEARS":6,"YIELD":37820,"RANK_#":17,"RANK_%":0.59,"CONTACTID":700},{"SITEID":2443,"CONTID":"K2001","GROUP":"cont","STATUS":"active","ADDRESS":"H\u00f6lderlinstr. 37 \/Lessingsstr., 71384 Weinstadt (Schnait)","LAT":48.8108645,"LON":9.3644475,"NUM_YEARS":6,"YIELD":4600,"RANK_#":361,"RANK_%":0.07,"CONTACTID":700},{"SITEID":2448,"CONTID":"K2081","GROUP":"cont","STATUS":"active","ADDRESS":"Neckaraue gg\u00fc 11 \/Heilbronner Str., 71686 Remseck (Hochberg)","LAT":48.8896059,"LON":9.2751914,"NUM_YEARS":6,"YIELD":9830,"RANK_#":245,"RANK_%":0.15,"CONTACTID":700},{"SITEID":2451,"CONTID":"K0012","GROUP":"cont","STATUS":"active","ADDRESS":"Pfahlb\u00fchlstr. \/R\u00f6merstr., 71384 Weinstadt (Gro\u00dfheppach)","LAT":48.81743,"LON":9.38004,"NUM_YEARS":5,"YIELD":6340,"RANK_#":290,"RANK_%":0.12,"CONTACTID":700},{"SITEID":2454,"CONTID":"K2078","GROUP":"cont","STATUS":"active","ADDRESS":"Friedhofweg \/G\u00f6ppinger Str., 73119 Zell unter Aichelberg","LAT":48.6498667,"LON":9.5735725,"NUM_YEARS":6,"YIELD":12570,"RANK_#":175,"RANK_%":0.2,"CONTACTID":700},{"SITEID":2455,"CONTID":"K0341","GROUP":"cont","STATUS":"active","ADDRESS":"Ziegeleistr, 71384 Weinstadt","LAT":48.8106,"LON":9.37678,"NUM_YEARS":6,"YIELD":10960,"RANK_#":215,"RANK_%":0.17,"CONTACTID":700},{"SITEID":2456,"CONTID":"L0103","GROUP":"cont","STATUS":"active","ADDRESS":"Remsstr. 13 \/Dreslerweg, 73650 Winterbach","LAT":48.7988283,"LON":9.4809223,"NUM_YEARS":6,"YIELD":26540,"RANK_#":46,"RANK_%":0.42,"CONTACTID":700},{"SITEID":2462,"CONTID":"K0119","GROUP":"cont","STATUS":"active","ADDRESS":"Lerchenstr. gg\u00fc 58 \/Schwalbenstr., 73650 Winterbach","LAT":48.7966971,"LON":9.4843705,"NUM_YEARS":6,"YIELD":6240,"RANK_#":311,"RANK_%":0.1,"CONTACTID":700},{"SITEID":2469,"CONTID":"K2017","GROUP":"cont","STATUS":"active","ADDRESS":"Machtolfstr. 3 \/An der Pfanne, 75378 Bad Liebenzell (M\u00f6ttlingen)","LAT":48.7617,"LON":8.80099,"NUM_YEARS":5,"YIELD":3080,"RANK_#":378,"RANK_%":0.06,"CONTACTID":700},{"SITEID":2477,"CONTID":"K0712","GROUP":"cont","STATUS":"active","ADDRESS":"Rotb\u00e4umlestr. 45 \/Rudolf-Greiner-Str., 71640 Ludwigsburg (O\u00dfweil)","LAT":48.8920417,"LON":9.2243009,"NUM_YEARS":6,"YIELD":11930,"RANK_#":186,"RANK_%":0.19,"CONTACTID":700},{"SITEID":2481,"CONTID":"K2085","GROUP":"cont","STATUS":"active","ADDRESS":"Hauptsstr. 68 \/Querstr., 71364 Winnenden (Birkmannsweiler)","LAT":48.864774,"LON":9.4293911,"NUM_YEARS":6,"YIELD":2610,"RANK_#":399,"RANK_%":0.04,"CONTACTID":700},{"SITEID":2483,"CONTID":"K0292","GROUP":"cont","STATUS":"active","ADDRESS":"Br\u00fcnner Str. 33 \/Bahnlinie, 73614 Schorndorf (Weiler (Rems))","LAT":48.8015423,"LON":9.52962,"NUM_YEARS":6,"YIELD":7510,"RANK_#":294,"RANK_%":0.12,"CONTACTID":700},{"SITEID":2488,"CONTID":"K0746","GROUP":"cont","STATUS":"active","ADDRESS":"Siemensstr. \/Bittenfelder Weg, 71563 Affalterbach","LAT":48.9163995,"LON":9.3257297,"NUM_YEARS":6,"YIELD":6830,"RANK_#":302,"RANK_%":0.11,"CONTACTID":700},{"SITEID":2501,"CONTID":"k0146","GROUP":"cont","STATUS":"active","ADDRESS":"Muckenseestr. 29 \/Barbarossastr., 73547 Lorch","LAT":48.79501,"LON":9.70053,"NUM_YEARS":6,"YIELD":6530,"RANK_#":312,"RANK_%":0.1,"CONTACTID":700},{"SITEID":2507,"CONTID":"U0890","GROUP":"cont","STATUS":"active","ADDRESS":"Sandweg gg\u00fc 7 \/Karlstr., 71711 Steinheim an der Murr","LAT":48.96797,"LON":9.27224,"NUM_YEARS":6,"YIELD":5780,"RANK_#":339,"RANK_%":0.09,"CONTACTID":700},{"SITEID":2510,"CONTID":"K0756","GROUP":"cont","STATUS":"active","ADDRESS":"Nelkenstr. gg\u00fc 26 \/Wacholderstr., 71723 Gro\u00dfbottwar","LAT":49.00578,"LON":9.29557,"NUM_YEARS":6,"YIELD":11530,"RANK_#":210,"RANK_%":0.18,"CONTACTID":700},{"SITEID":2518,"CONTID":"L0014","GROUP":"cont","STATUS":"active","ADDRESS":"Im Gehrn 1 \/Burgstaller Str., 71737 Kirchberg an der Murr","LAT":48.9418639,"LON":9.3520387,"NUM_YEARS":6,"YIELD":6940,"RANK_#":303,"RANK_%":0.11,"CONTACTID":700},{"SITEID":2526,"CONTID":"","GROUP":"cont","STATUS":"active","ADDRESS":"Gartenstr. gg\u00fc 62 \/Beethovenstr., 71554 Weissach im Tal","LAT":48.92865,"LON":9.46782,"NUM_YEARS":6,"YIELD":11200,"RANK_#":199,"RANK_%":0.18,"CONTACTID":700},{"SITEID":2527,"CONTID":"l0045","GROUP":"cont","STATUS":"active","ADDRESS":"Heutensbacher Str. \/Glas\u00e4ckerstr., 71573 Allmersbach im Tal","LAT":48.90908,"LON":9.47816,"NUM_YEARS":6,"YIELD":32880,"RANK_#":26,"RANK_%":0.52,"CONTACTID":700},{"SITEID":2530,"CONTID":"K0090","GROUP":"cont","STATUS":"active","ADDRESS":"Rinnenweg \/Kirchheimer Str., 73277 Owen","LAT":48.5857752,"LON":9.4508402,"NUM_YEARS":6,"YIELD":11720,"RANK_#":197,"RANK_%":0.18,"CONTACTID":700},{"SITEID":2536,"CONTID":"U1459","GROUP":"cont","STATUS":"active","ADDRESS":"Bildstr. gg\u00fc 34 \/Stormbergstr., 74360 Ilsfeld","LAT":49.0552822,"LON":9.2490754,"NUM_YEARS":6,"YIELD":11640,"RANK_#":200,"RANK_%":0.18,"CONTACTID":700},{"SITEID":2538,"CONTID":"K0020","GROUP":"cont","STATUS":"active","ADDRESS":"Sonnenb\u00fchl \/Auendorfer Str., 73342 Bad Ditzenbach","LAT":48.58734,"LON":9.69463,"NUM_YEARS":6,"YIELD":6610,"RANK_#":317,"RANK_%":0.1,"CONTACTID":700},{"SITEID":2544,"CONTID":"K0053","GROUP":"cont","STATUS":"active","ADDRESS":"T\u00e4lesweg gg\u00fc 9\/1 \/Wichernstr., 73054 Eislingen\/Fils","LAT":48.7060509,"LON":9.7134921,"NUM_YEARS":6,"YIELD":14230,"RANK_#":165,"RANK_%":0.22,"CONTACTID":-1},{"SITEID":2546,"CONTID":"H0392","GROUP":"cont","STATUS":"active","ADDRESS":"Schillerstr. gg\u00fc 31 \/L\u00f6nsstr., 71711 Steinheim an der Murr","LAT":48.9711476,"LON":9.2803749,"NUM_YEARS":6,"YIELD":15800,"RANK_#":132,"RANK_%":0.25,"CONTACTID":700},{"SITEID":2558,"CONTID":"K0630","GROUP":"cont","STATUS":"active","ADDRESS":"Bosslerstr. \/Kl\u00e4rwerk, 73084 Salach","LAT":48.6913065,"LON":9.7381237,"NUM_YEARS":6,"YIELD":5710,"RANK_#":331,"RANK_%":0.09,"CONTACTID":700},{"SITEID":2594,"CONTID":"K2074","GROUP":"cont","STATUS":"active","ADDRESS":"untere Uferstr. 47 \/ Gerberstr., 73614 Schorndorf","LAT":48.8046901,"LON":9.5152098,"NUM_YEARS":5,"YIELD":8280,"RANK_#":224,"RANK_%":0.16,"CONTACTID":700},{"SITEID":2595,"CONTID":"K0448","GROUP":"cont","STATUS":"active","ADDRESS":"Wettgasse 39 \/Grosse Gasse, 71101 Sch\u00f6naich","LAT":48.65789,"LON":9.06413,"NUM_YEARS":5,"YIELD":2870,"RANK_#":386,"RANK_%":0.05,"CONTACTID":700},{"SITEID":2604,"CONTID":"K0622","GROUP":"cont","STATUS":"active","ADDRESS":"Adalbert-Stifter-Str. \/Nei\u00dfestr., 71638 Ludwigsburg (Gr\u00fchnb\u00fchl)","LAT":48.8783,"LON":9.215701,"NUM_YEARS":5,"YIELD":9950,"RANK_#":185,"RANK_%":0.19,"CONTACTID":700},{"SITEID":2624,"CONTID":"K2031","GROUP":"cont","STATUS":"active","ADDRESS":"Hungerbergstr. \/K\u00f6nigsbergerring, 71364 Winnenden","LAT":48.8750046,"LON":9.3971423,"NUM_YEARS":5,"YIELD":10840,"RANK_#":181,"RANK_%":0.2,"CONTACTID":700},{"SITEID":2642,"CONTID":"K0695","GROUP":"cont","STATUS":"active","ADDRESS":"Im Rivier \/D\u00fcrrmenzerweg, 71299 Wiernsheim (Pinache)","LAT":48.8893389,"LON":8.8505105,"NUM_YEARS":5,"YIELD":5240,"RANK_#":319,"RANK_%":0.1,"CONTACTID":700},{"SITEID":2644,"CONTID":"L0011","GROUP":"cont","STATUS":"active","ADDRESS":"Carl-Diem-Str. \/Stuttgarterstr., 71674 Asperg","LAT":48.90171,"LON":9.13695,"NUM_YEARS":5,"YIELD":25200,"RANK_#":32,"RANK_%":0.47,"CONTACTID":700},{"SITEID":2652,"CONTID":"K2016","GROUP":"cont","STATUS":"active","ADDRESS":"M\u00f6nchweg \/Lichtensteinerstr., 71089 Holzgerlingen","LAT":48.6394255,"LON":9.0181128,"NUM_YEARS":5,"YIELD":4990,"RANK_#":335,"RANK_%":0.09,"CONTACTID":700},{"SITEID":2653,"CONTID":"K0593","GROUP":"cont","STATUS":"active","ADDRESS":"Filder Str. 50 \/Kirchplatz, 70771 Leinfelden-Echterdingen (Musberg)","LAT":48.6923033,"LON":9.121401,"NUM_YEARS":5,"YIELD":8380,"RANK_#":226,"RANK_%":0.16,"CONTACTID":700},{"SITEID":2669,"CONTID":"K2002","GROUP":"cont","STATUS":"active","ADDRESS":"Karlstr. \/Bahnhofplatz, 72581 Dettingen an der Erms","LAT":48.5281968,"LON":9.3442369,"NUM_YEARS":5,"YIELD":22070,"RANK_#":44,"RANK_%":0.42,"CONTACTID":700},{"SITEID":2682,"CONTID":"K0450","GROUP":"cont","STATUS":"active","ADDRESS":"Enzianweg \/Str\u00fcmpfelbacher Str., 71384 Weinstadt (Endersbach)","LAT":48.8108645,"LON":9.3644475,"NUM_YEARS":5,"YIELD":4030,"RANK_#":349,"RANK_%":0.08,"CONTACTID":700},{"SITEID":2688,"CONTID":"U1552","GROUP":"cont","STATUS":"active","ADDRESS":"Br\u00fchlstr.30 \/Im Gro\u00dfen Garten, 70771 Leinfelden-Echterdingen (Echterdingen)","LAT":48.68599,"LON":9.16889,"NUM_YEARS":5,"YIELD":13210,"RANK_#":130,"RANK_%":0.25,"CONTACTID":700},{"SITEID":2689,"CONTID":"K0227","GROUP":"cont","STATUS":"active","ADDRESS":"Pestalozzistr. \/Justinus-Kerner-Str., 71384 Weinstadt (Endersbach)","LAT":48.809683,"LON":9.3707997,"NUM_YEARS":5,"YIELD":9460,"RANK_#":205,"RANK_%":0.18,"CONTACTID":700},{"SITEID":2690,"CONTID":"L0109","GROUP":"cont","STATUS":"active","ADDRESS":"Winnenderstr. \/Im Kusterfeld, 71522 Backnang","LAT":48.93428,"LON":9.44405,"NUM_YEARS":5,"YIELD":6890,"RANK_#":273,"RANK_%":0.13,"CONTACTID":700},{"SITEID":2693,"CONTID":"K2117","GROUP":"cont","STATUS":"active","ADDRESS":"Kirschengasse \/Zu dem Obstgarten, 71522 Backnang (Steinbach)","LAT":48.9471455,"LON":9.4341813,"NUM_YEARS":5,"YIELD":7110,"RANK_#":269,"RANK_%":0.13,"CONTACTID":700},{"SITEID":2701,"CONTID":"L3053","GROUP":"cont","STATUS":"active","ADDRESS":"Kappish\u00e4user Str \/Sudetenstr., 72581 Dettingen an der Erms","LAT":48.53323,"LON":9.33898,"NUM_YEARS":5,"YIELD":53160,"RANK_#":1,"RANK_%":1,"CONTACTID":700},{"SITEID":2708,"CONTID":"K3013","GROUP":"cont","STATUS":"active","ADDRESS":"Schwabstr. \/Lessingstr., 72631 Aichtal (Rudolfsh\u00f6he)","LAT":48.63104,"LON":9.24961,"NUM_YEARS":5,"YIELD":19460,"RANK_#":61,"RANK_%":0.37,"CONTACTID":700},{"SITEID":2710,"CONTID":"L0049","GROUP":"cont","STATUS":"active","ADDRESS":"Am Desenbach, 73098 Rechberghausen","LAT":48.7232912,"LON":9.63826,"NUM_YEARS":5,"YIELD":6010,"RANK_#":297,"RANK_%":0.11,"CONTACTID":700},{"SITEID":2716,"CONTID":"K0744","GROUP":"cont","STATUS":"active","ADDRESS":"Robert-Bosch-Str \/Wilhelm-Maybach-Str, 72622 N\u00fcrtingen","LAT":48.61448,"LON":9.33408,"NUM_YEARS":5,"YIELD":12090,"RANK_#":151,"RANK_%":0.23,"CONTACTID":700},{"SITEID":2748,"CONTID":"H3064","GROUP":"cont","STATUS":"active","ADDRESS":"Goethestr. gg\u00fc 14 \/Kaiserstr., 72793 Pfullingen","LAT":48.47218,"LON":9.22903,"NUM_YEARS":5,"YIELD":8940,"RANK_#":220,"RANK_%":0.17,"CONTACTID":700},{"SITEID":2750,"CONTID":"L0052","GROUP":"cont","STATUS":"active","ADDRESS":"Heutensbacher Str. \/Glas\u00e4ckerstr., 71573 Allmersbach im Tal","LAT":48.90908,"LON":9.47816,"NUM_YEARS":5,"YIELD":26880,"RANK_#":29,"RANK_%":0.51,"CONTACTID":700},{"SITEID":2754,"CONTID":"","GROUP":"cont","STATUS":"active","ADDRESS":"Gartenstr. gg\u00fc 62 \/Beethovenstr., 71554 Weissach im Tal","LAT":48.92865,"LON":9.46782,"NUM_YEARS":4,"YIELD":7340,"RANK_#":218,"RANK_%":0.17,"CONTACTID":-1},{"SITEID":2757,"CONTID":"","GROUP":"cont","STATUS":"active","ADDRESS":"Gartenstr. gg\u00fc 62 \/Beethovenstr., 71554 Weissach im Tal","LAT":48.92865,"LON":9.46782,"NUM_YEARS":0,"YIELD":0,"RANK_#":430,"RANK_%":0,"CONTACTID":-1},{"SITEID":2758,"CONTID":"K0700","GROUP":"cont","STATUS":"active","ADDRESS":"Friedhofweg \/G\u00f6ppinger Str., 73119 Zell unter Aichelberg","LAT":48.6498667,"LON":9.5735725,"NUM_YEARS":4,"YIELD":9790,"RANK_#":150,"RANK_%":0.23,"CONTACTID":-1},{"SITEID":2759,"CONTID":"","GROUP":"cont","STATUS":"active","ADDRESS":"Heilbronner Str \/Reutlinger Str., 73037 G\u00f6ppingen","LAT":48.69698,"LON":9.67674,"NUM_YEARS":3,"YIELD":10490,"RANK_#":79,"RANK_%":0.33,"CONTACTID":-1},{"SITEID":2760,"CONTID":"L0079","GROUP":"cont","STATUS":"active","ADDRESS":"Alemannenstr. \/Jahnstr., 73066 Uhingen","LAT":48.71044,"LON":9.58872,"NUM_YEARS":4,"YIELD":10130,"RANK_#":145,"RANK_%":0.24,"CONTACTID":-1},{"SITEID":2765,"CONTID":"K3097","GROUP":"cont","STATUS":"active","ADDRESS":"Industriestr. gg\u00fc11 \/Humbergweeg, 75382 Althengstett","LAT":48.724333,"LON":8.7910466,"NUM_YEARS":4,"YIELD":10590,"RANK_#":133,"RANK_%":0.25,"CONTACTID":700},{"SITEID":2767,"CONTID":"L0107","GROUP":"cont","STATUS":"active","ADDRESS":"Tulpenstr. gg\u00fc. 3 \/Talstr, 71394 Kernen im Remstal (Rommelhausen)","LAT":48.8088421,"LON":9.3203231,"NUM_YEARS":4,"YIELD":12500,"RANK_#":98,"RANK_%":0.29,"CONTACTID":700},{"SITEID":2770,"CONTID":"K2067","GROUP":"cont","STATUS":"active","ADDRESS":"Finkenweg \/Drosselweg, 71296 Heimsheim","LAT":48.8040219,"LON":8.8590423,"NUM_YEARS":4,"YIELD":2830,"RANK_#":365,"RANK_%":0.07,"CONTACTID":700},{"SITEID":2777,"CONTID":"K0154","GROUP":"cont","STATUS":"active","ADDRESS":"Murr Str. \/Neckarstr., 70806 Kornwestheim","LAT":48.8617917,"LON":9.2049772,"NUM_YEARS":4,"YIELD":5690,"RANK_#":278,"RANK_%":0.13,"CONTACTID":700},{"SITEID":2778,"CONTID":"","GROUP":"cont","STATUS":"active","ADDRESS":"Hauptstr. \/Wolfackerstr., 75331 Engelsbrand","LAT":48.82853,"LON":8.64964,"NUM_YEARS":0,"YIELD":0,"RANK_#":431,"RANK_%":0,"CONTACTID":-1},{"SITEID":2779,"CONTID":"L0015","GROUP":"cont","STATUS":"active","ADDRESS":"Bahnhofsstr. \/Rosen\u00e4ckerstr., 71126 G\u00e4ufelden","LAT":48.560906,"LON":8.8492381,"NUM_YEARS":4,"YIELD":1770,"RANK_#":403,"RANK_%":0.04,"CONTACTID":700},{"SITEID":2783,"CONTID":"K5047","GROUP":"cont","STATUS":"active","ADDRESS":"Washingtonring \/Dallasweg, 71686 Remseck (Pattonville)","LAT":48.8725996,"LON":9.2284832,"NUM_YEARS":4,"YIELD":4240,"RANK_#":315,"RANK_%":0.1,"CONTACTID":700},{"SITEID":2790,"CONTID":"K3051","GROUP":"cont","STATUS":"active","ADDRESS":"Kirchstr. \/Asternweg, 71131 Jettingen (Oberjettingen)","LAT":48.5785,"LON":8.77292,"NUM_YEARS":4,"YIELD":4360,"RANK_#":324,"RANK_%":0.1,"CONTACTID":700},{"SITEID":2792,"CONTID":"L0026","GROUP":"cont","STATUS":"active","ADDRESS":"Ludwig Thoma Str. \/Ingeborg Drewitz Weg, 71116 G\u00e4rtringen","LAT":48.64743,"LON":8.90401,"NUM_YEARS":4,"YIELD":5800,"RANK_#":257,"RANK_%":0.14,"CONTACTID":700},{"SITEID":2795,"CONTID":"K0697","GROUP":"cont","STATUS":"active","ADDRESS":"Rinnenweg \/Kirchheimer Str., 73277 Owen","LAT":48.5857752,"LON":9.4508402,"NUM_YEARS":4,"YIELD":8060,"RANK_#":183,"RANK_%":0.19,"CONTACTID":700},{"SITEID":2796,"CONTID":"","GROUP":"cont","STATUS":"active","ADDRESS":"Silberdistel \/Pf\u00e4hlerstr., 72589 Westerheim","LAT":48.514261,"LON":9.6224621,"NUM_YEARS":2,"YIELD":210,"RANK_#":424,"RANK_%":0.01,"CONTACTID":700},{"SITEID":2798,"CONTID":"","GROUP":"cont","STATUS":"active","ADDRESS":"K\u00f6ltrain \/Kleindeinbacherstr, 72537 Schw\u00e4bisch Gm\u00fcnd (Grossdeinbach)","LAT":48.81054,"LON":9.7521,"NUM_YEARS":4,"YIELD":6870,"RANK_#":227,"RANK_%":0.16,"CONTACTID":700},{"SITEID":2801,"CONTID":"L0013","GROUP":"cont","STATUS":"active","ADDRESS":"Wilhelmstr. \/M\u00e4dlesbr\u00fcck, 72119 Ammerbuch","LAT":48.55385,"LON":8.96369,"NUM_YEARS":4,"YIELD":4680,"RANK_#":308,"RANK_%":0.11,"CONTACTID":700},{"SITEID":2803,"CONTID":"K0577","GROUP":"cont","STATUS":"active","ADDRESS":"Im Klingengraben \/Holzheimerstr., 73054 Eislingen","LAT":48.6925645,"LON":9.6989066,"NUM_YEARS":4,"YIELD":3280,"RANK_#":358,"RANK_%":0.08,"CONTACTID":700},{"SITEID":2808,"CONTID":"H0081","GROUP":"cont","STATUS":"active","ADDRESS":"Buchbergstr. \/Hirschstr., 71735 Eberdingen","LAT":48.8803999,"LON":8.9684195,"NUM_YEARS":4,"YIELD":3600,"RANK_#":347,"RANK_%":0.08,"CONTACTID":700},{"SITEID":2809,"CONTID":"","GROUP":"cont","STATUS":"active","ADDRESS":"Sonnenbergstr \/Dahlienweg, 71665 Vaihingen an der Enz (Aurich)","LAT":48.9133719,"LON":8.9435125,"NUM_YEARS":3,"YIELD":7740,"RANK_#":142,"RANK_%":0.24,"CONTACTID":700},{"SITEID":2813,"CONTID":"K0469","GROUP":"cont","STATUS":"active","ADDRESS":"Im N\u00e4heren Grund, 71563 Affalderbach","LAT":48.91824,"LON":9.32227,"NUM_YEARS":2,"YIELD":1040,"RANK_#":391,"RANK_%":0.05,"CONTACTID":700},{"SITEID":2817,"CONTID":"K0087","GROUP":"cont","STATUS":"active","ADDRESS":"Beethovenstr. \/Mozartstr., 71729 Erdmannshausen","LAT":48.94744,"LON":9.29322,"NUM_YEARS":2,"YIELD":3150,"RANK_#":241,"RANK_%":0.15,"CONTACTID":700},{"SITEID":2819,"CONTID":"K0661","GROUP":"cont","STATUS":"active","ADDRESS":"Im n\u00e4heren Grund \/Mais Weg, 71563 Affalderbach","LAT":48.91824,"LON":9.32227,"NUM_YEARS":2,"YIELD":570,"RANK_#":407,"RANK_%":0.03,"CONTACTID":700},{"SITEID":2824,"CONTID":"L0104","GROUP":"cont","STATUS":"active","ADDRESS":"Vetterstr., 75417 M\u00fchlacker","LAT":48.95735,"LON":8.84854,"NUM_YEARS":2,"YIELD":3110,"RANK_#":248,"RANK_%":0.15,"CONTACTID":700},{"SITEID":2832,"CONTID":"","GROUP":"cont","STATUS":"active","ADDRESS":"Bahnhofstr.134, 71665 Vaihingen an der Enz (Kleinglattbach)","LAT":48.9546556,"LON":8.9842788,"NUM_YEARS":2,"YIELD":1010,"RANK_#":383,"RANK_%":0.05,"CONTACTID":700},{"SITEID":2841,"CONTID":"","GROUP":"cont","STATUS":"active","ADDRESS":"Fasanenstr.29, 71665 Vaihingen an der Enz (Kleinglattbach)","LAT":48.9548329,"LON":8.9769768,"NUM_YEARS":2,"YIELD":550,"RANK_#":410,"RANK_%":0.03,"CONTACTID":700},{"SITEID":2845,"CONTID":"K3088","GROUP":"cont","STATUS":"active","ADDRESS":"Jahnstr., 73326 Deggingen","LAT":48.601,"LON":9.72945,"NUM_YEARS":2,"YIELD":2470,"RANK_#":288,"RANK_%":0.12,"CONTACTID":700},{"SITEID":2847,"CONTID":"K2104","GROUP":"cont","STATUS":"active","ADDRESS":"Karlstr. \/Bahnhofplatz, 72581 Dettingen an der Erms","LAT":48.5281968,"LON":9.3442369,"NUM_YEARS":2,"YIELD":4350,"RANK_#":174,"RANK_%":0.2,"CONTACTID":700},{"SITEID":2849,"CONTID":"K3128","GROUP":"cont","STATUS":"active","ADDRESS":"Ostweg 3 \/Ulmer Str., 73262 Reichenbach","LAT":48.7090996,"LON":9.4690987,"NUM_YEARS":2,"YIELD":5760,"RANK_#":117,"RANK_%":0.27,"CONTACTID":700},{"SITEID":2850,"CONTID":"L0047","GROUP":"cont","STATUS":"active","ADDRESS":"Vetterstr., 45417 M\u00fchlacker","LAT":48.95735,"LON":8.84854,"NUM_YEARS":1,"YIELD":2310,"RANK_#":162,"RANK_%":0.22,"CONTACTID":-1},{"SITEID":4001,"CONTID":"00000","GROUP":"cont","STATUS":"active","ADDRESS":"Saumstra\u00dfe 50, 88361 Altshausen","LAT":47.9404149,"LON":9.541917,"NUM_YEARS":2,"YIELD":2870,"RANK_#":267,"RANK_%":0.13,"CONTACTID":47},{"SITEID":4002,"CONTID":"00000","GROUP":"cont","STATUS":"active","ADDRESS":"Senderstra\u00dfe 14, 88361 Altshausen","LAT":47.92968,"LON":9.54123,"NUM_YEARS":2,"YIELD":1220,"RANK_#":370,"RANK_%":0.06,"CONTACTID":47},{"SITEID":4003,"CONTID":"00000","GROUP":"cont","STATUS":"active","ADDRESS":"Bahnhof 4, 88361 Altshausen","LAT":47.9293423,"LON":9.5439808,"NUM_YEARS":2,"YIELD":2160,"RANK_#":325,"RANK_%":0.1,"CONTACTID":47},{"SITEID":4004,"CONTID":"00000","GROUP":"cont","STATUS":"active","ADDRESS":"Bahnhof 4, 88361 Altshausen","LAT":47.9293423,"LON":9.5439808,"NUM_YEARS":2,"YIELD":3480,"RANK_#":228,"RANK_%":0.16,"CONTACTID":47},{"SITEID":4005,"CONTID":"00000","GROUP":"cont","STATUS":"active","ADDRESS":"Ostracher Stra\u00dfe, 88361 Altshausen","LAT":47.93424,"LON":9.53013,"NUM_YEARS":2,"YIELD":3070,"RANK_#":260,"RANK_%":0.14,"CONTACTID":47},{"SITEID":4006,"CONTID":"00000","GROUP":"cont","STATUS":"active","ADDRESS":"Pfannenstiehl 31, 88212 Ravensburg","LAT":47.78157,"LON":9.60345,"NUM_YEARS":2,"YIELD":600,"RANK_#":408,"RANK_%":0.03,"CONTACTID":47},{"SITEID":4007,"CONTID":"00000","GROUP":"cont","STATUS":"active","ADDRESS":"Pfannenstiehl 31, 88212 Ravensburg","LAT":47.78157,"LON":9.60345,"NUM_YEARS":2,"YIELD":1380,"RANK_#":376,"RANK_%":0.06,"CONTACTID":47},{"SITEID":4008,"CONTID":"00000","GROUP":"cont","STATUS":"active","ADDRESS":"Pfannenstiehl 31, 88212 Ravensburg","LAT":47.78157,"LON":9.60345,"NUM_YEARS":2,"YIELD":2020,"RANK_#":341,"RANK_%":0.09,"CONTACTID":47},{"SITEID":4009,"CONTID":"00000","GROUP":"cont","STATUS":"active","ADDRESS":"Schnetzenhauser Stra\u00dfe 2, 88045 Friedrichshafen","LAT":47.66421,"LON":9.43161,"NUM_YEARS":2,"YIELD":2670,"RANK_#":280,"RANK_%":0.13,"CONTACTID":47},{"SITEID":4010,"CONTID":"00000","GROUP":"cont","STATUS":"active","ADDRESS":"Schnetzenhauser Stra\u00dfe 2, 88045 Friedrichshafen","LAT":47.66421,"LON":9.43161,"NUM_YEARS":2,"YIELD":3580,"RANK_#":217,"RANK_%":0.17,"CONTACTID":47},{"SITEID":4011,"CONTID":"00000","GROUP":"cont","STATUS":"active","ADDRESS":"Schulstra\u00dfe 13, 88147 Achberg","LAT":47.6138238,"LON":9.7141806,"NUM_YEARS":2,"YIELD":2380,"RANK_#":301,"RANK_%":0.11,"CONTACTID":47},{"SITEID":4012,"CONTID":"00000","GROUP":"cont","STATUS":"active","ADDRESS":"Strandbadweg, 88353 Kisslegg","LAT":47.789715,"LON":9.8857952,"NUM_YEARS":2,"YIELD":1000,"RANK_#":390,"RANK_%":0.05,"CONTACTID":47},{"SITEID":4013,"CONTID":"00000","GROUP":"cont","STATUS":"active","ADDRESS":"Hauptstrasse 7, 88299 Leutkirch (Reichenhofen)","LAT":47.8451446,"LON":9.9699189,"NUM_YEARS":2,"YIELD":1080,"RANK_#":396,"RANK_%":0.05,"CONTACTID":47},{"SITEID":4014,"CONTID":"00000","GROUP":"cont","STATUS":"active","ADDRESS":"Hauptstrasse 7, 88299 Leutkirch (Reichenhofen)","LAT":47.8451446,"LON":9.9699189,"NUM_YEARS":2,"YIELD":1480,"RANK_#":362,"RANK_%":0.07,"CONTACTID":47},{"SITEID":4015,"CONTID":"00000","GROUP":"cont","STATUS":"active","ADDRESS":"Oberriedstra\u00dfe 11, 88410 Bad Wurzach","LAT":47.91174,"LON":9.89003,"NUM_YEARS":2,"YIELD":6150,"RANK_#":100,"RANK_%":0.29,"CONTACTID":47},{"SITEID":4016,"CONTID":"00000","GROUP":"cont","STATUS":"active","ADDRESS":"Pfarfeldstra\u00dfe, 88410 Bad Wurzach (Unterschwarzach)","LAT":47.9081917,"LON":9.8938287,"NUM_YEARS":2,"YIELD":940,"RANK_#":398,"RANK_%":0.04,"CONTACTID":47},{"SITEID":4017,"CONTID":"00000","GROUP":"cont","STATUS":"active","ADDRESS":"Lilienweg, 88410 Bad Wurzach (Hauerz)","LAT":47.9479357,"LON":9.9825166,"NUM_YEARS":2,"YIELD":1740,"RANK_#":353,"RANK_%":0.08,"CONTACTID":47},{"SITEID":4018,"CONTID":"00000","GROUP":"cont","STATUS":"active","ADDRESS":"Steinental 63, 88410 Bad Wurzach (Hauerz-Steinental)","LAT":47.9394942,"LON":10.0287448,"NUM_YEARS":2,"YIELD":1230,"RANK_#":375,"RANK_%":0.06,"CONTACTID":47},{"SITEID":4019,"CONTID":"00000","GROUP":"cont","STATUS":"active","ADDRESS":"Waldgasse, 88368 Bergatreute","LAT":47.8472509,"LON":9.7483292,"NUM_YEARS":2,"YIELD":4120,"RANK_#":188,"RANK_%":0.19,"CONTACTID":47},{"SITEID":4020,"CONTID":"00000","GROUP":"cont","STATUS":"active","ADDRESS":"Winterstetter Weg, 88456 Ingoldingen","LAT":48.02318,"LON":9.73854,"NUM_YEARS":2,"YIELD":420,"RANK_#":417,"RANK_%":0.02,"CONTACTID":47},{"SITEID":4021,"CONTID":"00000","GROUP":"cont","STATUS":"active","ADDRESS":"Winterstetter Weg, 88456 Ingoldingen","LAT":48.02318,"LON":9.73854,"NUM_YEARS":2,"YIELD":810,"RANK_#":401,"RANK_%":0.04,"CONTACTID":47},{"SITEID":4022,"CONTID":"B2145","GROUP":"cont","STATUS":"active","ADDRESS":"Vogesenstr.\/Rabenstr., 79098 Freiburg (Alt-St\u00fchlingen)","LAT":47.9950604,"LON":7.8315957,"NUM_YEARS":1,"YIELD":2740,"RANK_#":127,"RANK_%":0.26,"CONTACTID":48},{"SITEID":4023,"CONTID":"?????","GROUP":"cont","STATUS":"active","ADDRESS":"W\u00f6lflinstr. 4, 79104 Freiburg","LAT":48.0037167,"LON":7.8572404,"NUM_YEARS":1,"YIELD":1870,"RANK_#":195,"RANK_%":0.18,"CONTACTID":48},{"SITEID":4024,"CONTID":"B2152","GROUP":"cont","STATUS":"active","ADDRESS":"Albertsstr.\/Hebelstr. 29, 79104 Freiburg","LAT":48.0009102,"LON":7.8476741,"NUM_YEARS":1,"YIELD":1500,"RANK_#":258,"RANK_%":0.14,"CONTACTID":48},{"SITEID":4025,"CONTID":"B2139","GROUP":"cont","STATUS":"active","ADDRESS":"Klarastr.57, 79106 Freiburg (Alt-St\u00fchlingen)","LAT":47.9974997,"LON":7.8388051,"NUM_YEARS":1,"YIELD":7090,"RANK_#":11,"RANK_%":0.67,"CONTACTID":48},{"SITEID":4026,"CONTID":"?2148","GROUP":"cont","STATUS":"active","ADDRESS":"Fehrenbachallee 9, 79106 Freiburg","LAT":48.0025102,"LON":7.8355601,"NUM_YEARS":1,"YIELD":3200,"RANK_#":93,"RANK_%":0.3,"CONTACTID":48},{"SITEID":4027,"CONTID":"B2129","GROUP":"cont","STATUS":"active","ADDRESS":"Lehenerstr. 90, 79106 Freiburg","LAT":48.00334,"LON":7.83303,"NUM_YEARS":1,"YIELD":3520,"RANK_#":76,"RANK_%":0.33,"CONTACTID":48},{"SITEID":4028,"CONTID":"B2152","GROUP":"cont","STATUS":"active","ADDRESS":"St\u00fcrzelstr. 10, 79106 Freiburg","LAT":47.9992,"LON":7.83474,"NUM_YEARS":1,"YIELD":2970,"RANK_#":114,"RANK_%":0.28,"CONTACTID":48},{"SITEID":4029,"CONTID":"B2150","GROUP":"cont","STATUS":"active","ADDRESS":"Alban-Stolz-Str. 4, 79108 Freiburg","LAT":48.0232997,"LON":7.8575911,"NUM_YEARS":1,"YIELD":2540,"RANK_#":146,"RANK_%":0.24,"CONTACTID":48},{"SITEID":4030,"CONTID":"?????","GROUP":"cont","STATUS":"active","ADDRESS":"Kandelstra\u00dfe, 79108 Freiburg","LAT":48.0090273,"LON":7.8511157,"NUM_YEARS":1,"YIELD":1930,"RANK_#":194,"RANK_%":0.18,"CONTACTID":48},{"SITEID":4031,"CONTID":"?2106","GROUP":"cont","STATUS":"active","ADDRESS":"Kaschnitzweg 2\/Sonnenhalde, 79108 Freiburg","LAT":48.0430053,"LON":7.8205932,"NUM_YEARS":1,"YIELD":1270,"RANK_#":295,"RANK_%":0.12,"CONTACTID":48},{"SITEID":4032,"CONTID":"?????","GROUP":"cont","STATUS":"active","ADDRESS":"Offenburgerstr. 76, 79108 Freiburg","LAT":48.0205841,"LON":7.8549433,"NUM_YEARS":1,"YIELD":2770,"RANK_#":125,"RANK_%":0.26,"CONTACTID":48},{"SITEID":4033,"CONTID":"?????","GROUP":"cont","STATUS":"active","ADDRESS":"Offenburgerstr. 76, 79108 Freiburg","LAT":48.0205841,"LON":7.8549433,"NUM_YEARS":1,"YIELD":3000,"RANK_#":109,"RANK_%":0.28,"CONTACTID":48},{"SITEID":4034,"CONTID":"B2132","GROUP":"cont","STATUS":"active","ADDRESS":"Hornusstr. 3, 79108 Freiburg","LAT":48.01535,"LON":7.8520764,"NUM_YEARS":1,"YIELD":7200,"RANK_#":10,"RANK_%":0.68,"CONTACTID":48},{"SITEID":4035,"CONTID":"?????","GROUP":"cont","STATUS":"active","ADDRESS":"Verlorener Weg \/Ecke am Anger, 79110 Freiburg (Mooswald)","LAT":48.01502,"LON":7.81967,"NUM_YEARS":1,"YIELD":1150,"RANK_#":306,"RANK_%":0.11,"CONTACTID":48},{"SITEID":4036,"CONTID":"B2136","GROUP":"cont","STATUS":"active","ADDRESS":"Hofackerstr. 64\/Leisnerstr., 79110 Freiburg (Betzenhausen)","LAT":48.01467,"LON":7.81449,"NUM_YEARS":1,"YIELD":5560,"RANK_#":27,"RANK_%":0.52,"CONTACTID":48},{"SITEID":4037,"CONTID":"B2144","GROUP":"cont","STATUS":"active","ADDRESS":"Hofackerstr. 64\/Leisnerstr., 79110 Freiburg (Betzenhausen)","LAT":48.01467,"LON":7.81449,"NUM_YEARS":1,"YIELD":5730,"RANK_#":22,"RANK_%":0.54,"CONTACTID":48},{"SITEID":4038,"CONTID":"B2143","GROUP":"cont","STATUS":"active","ADDRESS":"Ensisheimer Stra\u00dfe 4, 79110 Freiburg (Mooswald)","LAT":48.0101797,"LON":7.8258069,"NUM_YEARS":1,"YIELD":3800,"RANK_#":66,"RANK_%":0.36,"CONTACTID":48},{"SITEID":4039,"CONTID":"B2135","GROUP":"cont","STATUS":"active","ADDRESS":"Ensisheimer Stra\u00dfe 4, 79110 Freiburg (Mooswald)","LAT":48.0101797,"LON":7.8258069,"NUM_YEARS":1,"YIELD":3370,"RANK_#":81,"RANK_%":0.32,"CONTACTID":48},{"SITEID":4040,"CONTID":"?????","GROUP":"cont","STATUS":"active","ADDRESS":"Lehenerstr.\/Grenzstr., 79110 Freiburg","LAT":48.0059557,"LON":7.8244516,"NUM_YEARS":1,"YIELD":1990,"RANK_#":184,"RANK_%":0.19,"CONTACTID":48},{"SITEID":4041,"CONTID":"?2113","GROUP":"cont","STATUS":"active","ADDRESS":"Falkenbergerstr. 18, 79110 Freiburg","LAT":48.021186,"LON":7.8115101,"NUM_YEARS":1,"YIELD":4350,"RANK_#":49,"RANK_%":0.41,"CONTACTID":48},{"SITEID":4042,"CONTID":"B2147","GROUP":"cont","STATUS":"active","ADDRESS":"Falkenbergerstr. 18, 79110 Freiburg","LAT":48.021186,"LON":7.8115101,"NUM_YEARS":1,"YIELD":5710,"RANK_#":23,"RANK_%":0.54,"CONTACTID":48},{"SITEID":4043,"CONTID":"B2133","GROUP":"cont","STATUS":"active","ADDRESS":"Kussmaulstra\u00dfe, 79114 Freiburg (Betzenhausen)","LAT":48.00668,"LON":7.8138,"NUM_YEARS":1,"YIELD":4320,"RANK_#":50,"RANK_%":0.41,"CONTACTID":48},{"SITEID":4044,"CONTID":"?2127","GROUP":"cont","STATUS":"active","ADDRESS":"Kussmaulstra\u00dfe, 79114 Freiburg (Betzenhausen)","LAT":48.00668,"LON":7.8138,"NUM_YEARS":1,"YIELD":3830,"RANK_#":69,"RANK_%":0.36,"CONTACTID":48},{"SITEID":4045,"CONTID":"?2115","GROUP":"cont","STATUS":"active","ADDRESS":"Charlottenburgerstr. 1-2, 79114 Freiburg","LAT":48.00347,"LON":7.81992,"NUM_YEARS":1,"YIELD":4060,"RANK_#":59,"RANK_%":0.38,"CONTACTID":48},{"SITEID":4047,"CONTID":"","GROUP":"cont","STATUS":"active","ADDRESS":"Vogesenstra\u00dfe\/Rabenstr., 79098 Freiburg","LAT":47.9950604,"LON":7.8315957,"NUM_YEARS":0,"YIELD":0,"RANK_#":428,"RANK_%":0,"CONTACTID":48},{"SITEID":4048,"CONTID":"?2117","GROUP":"cont","STATUS":"active","ADDRESS":"Goetheplatz, 79100 Freiburg","LAT":47.98289,"LON":7.84387,"NUM_YEARS":1,"YIELD":5010,"RANK_#":35,"RANK_%":0.47,"CONTACTID":48},{"SITEID":4049,"CONTID":"B2141","GROUP":"cont","STATUS":"active","ADDRESS":"Kronenstra\u00dfe\/Baslerstr., 79100 Freiburg","LAT":47.9868,"LON":7.83892,"NUM_YEARS":1,"YIELD":2540,"RANK_#":147,"RANK_%":0.24,"CONTACTID":48},{"SITEID":4050,"CONTID":"B2142","GROUP":"cont","STATUS":"active","ADDRESS":"Richthofenstra\u00dfe, 79100 Freiburg","LAT":47.985,"LON":7.83368,"NUM_YEARS":1,"YIELD":3260,"RANK_#":89,"RANK_%":0.31,"CONTACTID":48},{"SITEID":4051,"CONTID":"?????","GROUP":"cont","STATUS":"active","ADDRESS":"Sandfangweg 3, 79102 Freiburg","LAT":47.99081,"LON":7.87989,"NUM_YEARS":1,"YIELD":750,"RANK_#":366,"RANK_%":0.07,"CONTACTID":48},{"SITEID":4052,"CONTID":"?2118","GROUP":"cont","STATUS":"active","ADDRESS":"Kart\u00e4userstr. 118, 79104 Freiburg","LAT":47.99197,"LON":7.86865,"NUM_YEARS":1,"YIELD":4350,"RANK_#":48,"RANK_%":0.41,"CONTACTID":48},{"SITEID":4053,"CONTID":"?????","GROUP":"cont","STATUS":"active","ADDRESS":"Wintererstr.\/Immentalstr., 79104 Freiburg","LAT":48.002464,"LON":7.8677384,"NUM_YEARS":1,"YIELD":2590,"RANK_#":148,"RANK_%":0.24,"CONTACTID":48},{"SITEID":4054,"CONTID":"?2128","GROUP":"cont","STATUS":"active","ADDRESS":"Hieberainle 46, 79108 Freiburg (Hochdorf)","LAT":48.0529892,"LON":7.8005036,"NUM_YEARS":1,"YIELD":1960,"RANK_#":206,"RANK_%":0.18,"CONTACTID":48},{"SITEID":4055,"CONTID":"?????","GROUP":"cont","STATUS":"active","ADDRESS":"Riedmatten 4, 79108 Freiburg (Hochdorf)","LAT":48.0499,"LON":7.79573,"NUM_YEARS":1,"YIELD":2970,"RANK_#":111,"RANK_%":0.28,"CONTACTID":48},{"SITEID":4056,"CONTID":"?????","GROUP":"cont","STATUS":"active","ADDRESS":"Auwaldstra\u00dfe 84, 79110 Freiburg","LAT":48.02422,"LON":7.80934,"NUM_YEARS":1,"YIELD":2770,"RANK_#":126,"RANK_%":0.26,"CONTACTID":48},{"SITEID":4057,"CONTID":"?????","GROUP":"cont","STATUS":"active","ADDRESS":"Auwaldstra\u00dfe 84, 79110 Freiburg","LAT":48.02422,"LON":7.80934,"NUM_YEARS":1,"YIELD":2770,"RANK_#":124,"RANK_%":0.26,"CONTACTID":48},{"SITEID":4058,"CONTID":"?2120","GROUP":"cont","STATUS":"active","ADDRESS":"Walter-Benjamin-Str.\/Ingeborg-Drewitz-St, 79111 Freiburg","LAT":47.9969623,"LON":7.7902558,"NUM_YEARS":1,"YIELD":3260,"RANK_#":86,"RANK_%":0.31,"CONTACTID":48},{"SITEID":4059,"CONTID":"?2107","GROUP":"cont","STATUS":"active","ADDRESS":"Walter-Benjamin-Str.\/Ingeborg-Drewitz-St, 79111 Freiburg","LAT":47.9969623,"LON":7.7902558,"NUM_YEARS":1,"YIELD":4010,"RANK_#":55,"RANK_%":0.38,"CONTACTID":48},{"SITEID":4060,"CONTID":"?????","GROUP":"cont","STATUS":"active","ADDRESS":"Belchenstra\u00dfe 19, 79115 Freiberg (Haslach)","LAT":47.9879338,"LON":7.8162011,"NUM_YEARS":1,"YIELD":1960,"RANK_#":207,"RANK_%":0.18,"CONTACTID":48},{"SITEID":4061,"CONTID":"?????","GROUP":"cont","STATUS":"active","ADDRESS":"Belchenstra\u00dfe 19, 79115 Freiberg (Haslach)","LAT":47.9879338,"LON":7.8162011,"NUM_YEARS":1,"YIELD":3050,"RANK_#":96,"RANK_%":0.29,"CONTACTID":48},{"SITEID":4062,"CONTID":"?2112","GROUP":"cont","STATUS":"active","ADDRESS":"Nonnenmattenweg\/Markgrafstr.28, 79115 Freiburg","LAT":47.9906059,"LON":7.8214079,"NUM_YEARS":1,"YIELD":4120,"RANK_#":54,"RANK_%":0.39,"CONTACTID":48},{"SITEID":4063,"CONTID":"B2109","GROUP":"cont","STATUS":"active","ADDRESS":"Julius Brecht Str.29, 79115 Freiberg","LAT":47.99468,"LON":7.81745,"NUM_YEARS":1,"YIELD":1900,"RANK_#":204,"RANK_%":0.18,"CONTACTID":48},{"SITEID":4064,"CONTID":"?????","GROUP":"cont","STATUS":"active","ADDRESS":"Butzenhofstr.\/Gro\u00dftalstra\u00dfe, 79117 Freiburg (Kappel)","LAT":47.94744,"LON":7.90534,"NUM_YEARS":1,"YIELD":170,"RANK_#":416,"RANK_%":0.02,"CONTACTID":48},{"SITEID":4065,"CONTID":"?2116","GROUP":"cont","STATUS":"active","ADDRESS":"Hansjakobstra\u00dfe 91, 79117 Freiburg","LAT":47.9864393,"LON":7.8882542,"NUM_YEARS":1,"YIELD":7290,"RANK_#":9,"RANK_%":0.69,"CONTACTID":48},{"SITEID":4066,"CONTID":"?????","GROUP":"cont","STATUS":"active","ADDRESS":"Auf der Zinnen\/Leopoldrind\/Am Karlsplatz, 79098 Freiburg (Altstadt-Ring)","LAT":47.9967095,"LON":7.8557971,"NUM_YEARS":1,"YIELD":2310,"RANK_#":160,"RANK_%":0.22,"CONTACTID":48},{"SITEID":4067,"CONTID":"?????","GROUP":"cont","STATUS":"active","ADDRESS":"H\u00f6llentalstra\u00dfe\/Lindenmattenstr., 79117 Freiburg (Littenweiler)","LAT":47.98005,"LON":7.89981,"NUM_YEARS":1,"YIELD":1990,"RANK_#":191,"RANK_%":0.19,"CONTACTID":48},{"SITEID":4068,"CONTID":"?????","GROUP":"cont","STATUS":"active","ADDRESS":"H\u00f6llentalstra\u00dfe\/Lindenmattenstr., 79117 Freiburg (Littenweiler)","LAT":47.98005,"LON":7.89981,"NUM_YEARS":1,"YIELD":1930,"RANK_#":203,"RANK_%":0.18,"CONTACTID":48},{"SITEID":4069,"CONTID":"?2124","GROUP":"cont","STATUS":"active","ADDRESS":"Am Rossl\u00e4ger 12, 79353 Bahlingen","LAT":48.11922,"LON":7.74245,"NUM_YEARS":1,"YIELD":400,"RANK_#":402,"RANK_%":0.04,"CONTACTID":48},{"SITEID":4070,"CONTID":"?????","GROUP":"cont","STATUS":"active","ADDRESS":"Industriestr.10, 79341 Kenzingen","LAT":48.19698,"LON":7.76567,"NUM_YEARS":1,"YIELD":8270,"RANK_#":6,"RANK_%":0.78,"CONTACTID":48},{"SITEID":4071,"CONTID":"?????","GROUP":"cont","STATUS":"active","ADDRESS":"Industriestr.10, 79341 Kenzingen","LAT":48.19698,"LON":7.76567,"NUM_YEARS":1,"YIELD":6740,"RANK_#":12,"RANK_%":0.63,"CONTACTID":48},{"SITEID":4072,"CONTID":"?????","GROUP":"cont","STATUS":"active","ADDRESS":"Dragonerstra\u00dfe, 79336 Herbolzheim (Broggingen)","LAT":48.2202996,"LON":7.8300647,"NUM_YEARS":1,"YIELD":370,"RANK_#":413,"RANK_%":0.03,"CONTACTID":48},{"SITEID":4073,"CONTID":"?????","GROUP":"cont","STATUS":"active","ADDRESS":"Kufsteinerstr.3, 79115 Freiberg (St.Georgen)","LAT":47.97803,"LON":7.82019,"NUM_YEARS":1,"YIELD":3400,"RANK_#":83,"RANK_%":0.32,"CONTACTID":48},{"SITEID":4074,"CONTID":"L2280","GROUP":"cont","STATUS":"active","ADDRESS":"Schlierbergstr.141\/Am Josefbergel, 79100 Freiburg","LAT":47.9685863,"LON":7.8519788,"NUM_YEARS":1,"YIELD":8420,"RANK_#":5,"RANK_%":0.79,"CONTACTID":48},{"SITEID":4075,"CONTID":"L2288","GROUP":"cont","STATUS":"active","ADDRESS":"Hans-Thoma-Str.\/Mathias Gr\u00fcnewald Str., 79100 Freiburg","LAT":47.9685863,"LON":7.8519788,"NUM_YEARS":1,"YIELD":1440,"RANK_#":255,"RANK_%":0.14,"CONTACTID":48},{"SITEID":4076,"CONTID":"?2156","GROUP":"cont","STATUS":"active","ADDRESS":"Alfred Doblin Str., 79100 Freiburg","LAT":47.97483,"LON":7.82352,"NUM_YEARS":1,"YIELD":5620,"RANK_#":25,"RANK_%":0.53,"CONTACTID":48},{"SITEID":4077,"CONTID":"L2176","GROUP":"cont","STATUS":"active","ADDRESS":"Alfred Doblin Str., 79100 Freiburg","LAT":47.97483,"LON":7.82352,"NUM_YEARS":1,"YIELD":6340,"RANK_#":15,"RANK_%":0.6,"CONTACTID":48},{"SITEID":4078,"CONTID":"L2285","GROUP":"cont","STATUS":"active","ADDRESS":"Lettenweg\/Brunnstubenstr., 79111 Freiburg","LAT":47.97473,"LON":7.80959,"NUM_YEARS":1,"YIELD":980,"RANK_#":334,"RANK_%":0.09,"CONTACTID":48},{"SITEID":4079,"CONTID":"?2157","GROUP":"cont","STATUS":"active","ADDRESS":"Ruhbankweg 3, 79111 Freiburg","LAT":47.9771504,"LON":7.7981886,"NUM_YEARS":1,"YIELD":3080,"RANK_#":101,"RANK_%":0.29,"CONTACTID":48},{"SITEID":4080,"CONTID":"L2146","GROUP":"cont","STATUS":"active","ADDRESS":"Vorarlberger Weg 1, 79111 Freiburg","LAT":47.981927,"LON":7.8000849,"NUM_YEARS":1,"YIELD":4520,"RANK_#":42,"RANK_%":0.43,"CONTACTID":48},{"SITEID":4081,"CONTID":"L2287","GROUP":"cont","STATUS":"active","ADDRESS":"Mettackerweg 7, 79111 Freiburg","LAT":47.98109,"LON":7.80904,"NUM_YEARS":1,"YIELD":810,"RANK_#":359,"RANK_%":0.08,"CONTACTID":48},{"SITEID":4082,"CONTID":"?????","GROUP":"cont","STATUS":"active","ADDRESS":"Schauinslandstra\u00dfe\/Hirschstr., 79100 Freiburg (G\u00fcnterstall)","LAT":47.96423,"LON":7.8573,"NUM_YEARS":1,"YIELD":1470,"RANK_#":256,"RANK_%":0.14,"CONTACTID":48},{"SITEID":4083,"CONTID":"?2154","GROUP":"cont","STATUS":"active","ADDRESS":"Am Gemeindegarten 2, 79359 Riegel","LAT":48.1517666,"LON":7.7529765,"NUM_YEARS":1,"YIELD":2650,"RANK_#":134,"RANK_%":0.25,"CONTACTID":48},{"SITEID":4084,"CONTID":"L2302","GROUP":"cont","STATUS":"active","ADDRESS":"M\u00fcnstert\u00e4ler Str.1, 79219 Staufen","LAT":47.8809759,"LON":7.7300142,"NUM_YEARS":1,"YIELD":4840,"RANK_#":37,"RANK_%":0.46,"CONTACTID":48},{"SITEID":4085,"CONTID":"L2300","GROUP":"cont","STATUS":"active","ADDRESS":"Karl-Bautz-Str.9, 79312 Emmendingen","LAT":48.11843,"LON":7.84872,"NUM_YEARS":1,"YIELD":3890,"RANK_#":64,"RANK_%":0.37,"CONTACTID":48},{"SITEID":4086,"CONTID":"L2141","GROUP":"cont","STATUS":"active","ADDRESS":"Dahlienweg 22, 79312 Emmendingen","LAT":48.10852,"LON":7.86027,"NUM_YEARS":1,"YIELD":3660,"RANK_#":72,"RANK_%":0.34,"CONTACTID":48},{"SITEID":4087,"CONTID":"L2281","GROUP":"cont","STATUS":"active","ADDRESS":"Dahlienweg 22, 79312 Emmendingen","LAT":48.10852,"LON":7.86027,"NUM_YEARS":1,"YIELD":6570,"RANK_#":13,"RANK_%":0.62,"CONTACTID":48},{"SITEID":4090,"CONTID":"?????","GROUP":"cont","STATUS":"active","ADDRESS":"Emmendinger Str.21, 79183 Waldkirch","LAT":48.0891012,"LON":7.9396394,"NUM_YEARS":1,"YIELD":2330,"RANK_#":157,"RANK_%":0.22,"CONTACTID":48},{"SITEID":4091,"CONTID":"?????","GROUP":"cont","STATUS":"active","ADDRESS":"Emmendinger Str.21, 79183 Waldkirch","LAT":48.0891012,"LON":7.9396394,"NUM_YEARS":1,"YIELD":2310,"RANK_#":164,"RANK_%":0.22,"CONTACTID":48},{"SITEID":4092,"CONTID":"?????","GROUP":"cont","STATUS":"active","ADDRESS":"Neudorfstra\u00dfe\/Im Ro\u00dfschweif, 79312 Emmendingen","LAT":48.11519,"LON":7.87829,"NUM_YEARS":1,"YIELD":2620,"RANK_#":135,"RANK_%":0.25,"CONTACTID":48},{"SITEID":4093,"CONTID":"?????","GROUP":"cont","STATUS":"active","ADDRESS":"Tennenbacher Str. 29, 79312 Emmendingen","LAT":48.1197306,"LON":7.8663771,"NUM_YEARS":1,"YIELD":2360,"RANK_#":158,"RANK_%":0.22,"CONTACTID":48},{"SITEID":4094,"CONTID":"00000","GROUP":"cont","STATUS":"active","ADDRESS":"Oberriedstra\u00dfe 11, 88410 Bad Wurzach","LAT":47.91174,"LON":9.89003,"NUM_YEARS":1,"YIELD":1730,"RANK_#":229,"RANK_%":0.16,"CONTACTID":47},{"SITEID":4095,"CONTID":"?2251","GROUP":"cont","STATUS":"active","ADDRESS":"Hornusstr. 3, 79108 Freiburg","LAT":48.01538,"LON":7.8531782,"NUM_YEARS":1,"YIELD":3860,"RANK_#":65,"RANK_%":0.36,"CONTACTID":48},