[{"SITEID":1,"CONTID":"","GROUP":"cont","STATUS":"ex","ADDRESS":"Rheinauer Ring, 68219 Mannheim (Rheinau)","LAT":49.4341066,"LON":8.5333291,"NUM_YEARS":3,"YIELD":3190,"RANK_#":0,"RANK_%":0,"CONTACTID":1},{"SITEID":2,"CONTID":"","GROUP":"cont","STATUS":"ex","ADDRESS":"Edinger Riedweg, 68219 Mannheim (Rheinau)","LAT":49.4216937,"LON":8.5313824,"NUM_YEARS":3,"YIELD":1250,"RANK_#":0,"RANK_%":0,"CONTACTID":2},{"SITEID":3,"CONTID":"","GROUP":"cont","STATUS":"ex","ADDRESS":"Angelstr. gg\u00fc Nr. 60, 68199 Mannheim (Neckarau)","LAT":49.4564006,"LON":8.4870173,"NUM_YEARS":3,"YIELD":150,"RANK_#":0,"RANK_%":0,"CONTACTID":3},{"SITEID":4,"CONTID":"","GROUP":"cont","STATUS":"ex","ADDRESS":"Hans-Sachs-Ring 93, 68163 Mannheim (Niederfeld)","LAT":49.45543,"LON":8.47652,"NUM_YEARS":3,"YIELD":520,"RANK_#":0,"RANK_%":0,"CONTACTID":3},{"SITEID":5,"CONTID":"","GROUP":"cont","STATUS":"ex","ADDRESS":"Wachenburgerstr. 129-131, 68219 Mannheim (Rheinau)","LAT":49.4326266,"LON":8.5315905,"NUM_YEARS":5,"YIELD":1340,"RANK_#":0,"RANK_%":0,"CONTACTID":4},{"SITEID":6,"CONTID":"","GROUP":"cont","STATUS":"ex","ADDRESS":"Steubenstr. 48, 68163 Mannheim (Almenhof)","LAT":49.4603629,"LON":8.4782916,"NUM_YEARS":3,"YIELD":0,"RANK_#":0,"RANK_%":0,"CONTACTID":5},{"SITEID":7,"CONTID":"","GROUP":"cont","STATUS":"ex","ADDRESS":"Niebelungenring 29, 68163 Mannheim (Niederfeld)","LAT":49.4499601,"LON":8.4771002,"NUM_YEARS":3,"YIELD":120,"RANK_#":0,"RANK_%":0,"CONTACTID":6},{"SITEID":8,"CONTID":"","GROUP":"cont","STATUS":"ex","ADDRESS":"Neckarauerstr., 68163 Mannheim (Almenhof)","LAT":49.4659012,"LON":8.4863888,"NUM_YEARS":3,"YIELD":1970,"RANK_#":0,"RANK_%":0,"CONTACTID":7},{"SITEID":9,"CONTID":"","GROUP":"cont","STATUS":"ex","ADDRESS":"Riedweg 2, 68239 Mannheim (Suebenheim)","LAT":49.455442,"LON":8.5623921,"NUM_YEARS":4,"YIELD":1550,"RANK_#":0,"RANK_%":0,"CONTACTID":8},{"SITEID":10,"CONTID":"","GROUP":"cont","STATUS":"ex","ADDRESS":"Wachenburgerstr., 68239 Mannheim (Hochst\u00e4tten)","LAT":49.4617313,"LON":8.553393,"NUM_YEARS":5,"YIELD":5010,"RANK_#":0,"RANK_%":0,"CONTACTID":3},{"SITEID":11,"CONTID":"L0077","GROUP":"cont","STATUS":"active","ADDRESS":"Im B\u00fcchsenschall, 68229 Mannheim (Friedrichsfeld)","LAT":49.4339431,"LON":8.5721656,"NUM_YEARS":13,"YIELD":11340,"RANK_#":41,"RANK_%":0.26,"CONTACTID":3},{"SITEID":12,"CONTID":"","GROUP":"cont","STATUS":"ex","ADDRESS":"Hafenbahnstr., 68305 Mannheim (Neckarstadt)","LAT":49.51327,"LON":8.48441,"NUM_YEARS":5,"YIELD":4290,"RANK_#":0,"RANK_%":0,"CONTACTID":3},{"SITEID":13,"CONTID":"","GROUP":"cont","STATUS":"ex","ADDRESS":"Casterfeldstr.81, 68199 Mannheim (Neckarau)","LAT":49.4478052,"LON":8.5052447,"NUM_YEARS":3,"YIELD":1200,"RANK_#":0,"RANK_%":0,"CONTACTID":3},{"SITEID":14,"CONTID":"","GROUP":"cont","STATUS":"ex","ADDRESS":"Wilh.-Wundt-Platz, 68199 Mannheim (Neckarau)","LAT":49.4485291,"LON":8.4959568,"NUM_YEARS":3,"YIELD":3100,"RANK_#":0,"RANK_%":0,"CONTACTID":9},{"SITEID":15,"CONTID":"","GROUP":"cont","STATUS":"ex","ADDRESS":"Sporw\u00f6rthstr. gg\u00fc. Nr. 94, 68219 Mannheim (Pfingstberg)","LAT":49.4326266,"LON":8.5315905,"NUM_YEARS":3,"YIELD":1560,"RANK_#":0,"RANK_%":0,"CONTACTID":3},{"SITEID":16,"CONTID":"","GROUP":"cont","STATUS":"ex","ADDRESS":"Stolzeneckstr.\/ Minneburgstr., 68219 Mannheim (Pfingstberg)","LAT":49.4443308,"LON":8.5237328,"NUM_YEARS":3,"YIELD":4270,"RANK_#":0,"RANK_%":0,"CONTACTID":3},{"SITEID":17,"CONTID":"","GROUP":"cont","STATUS":"ex","ADDRESS":"Sporw\u00f6rthplatz, 68219 Mannheim (Pfingstberg)","LAT":49.44511,"LON":8.52196,"NUM_YEARS":3,"YIELD":2400,"RANK_#":0,"RANK_%":0,"CONTACTID":3},{"SITEID":18,"CONTID":"","GROUP":"cont","STATUS":"ex","ADDRESS":"In den alten Wiesen gg\u00fc. Nr. 40, 68219 Mannheim (Pfingstberg)","LAT":49.4326266,"LON":8.5315905,"NUM_YEARS":3,"YIELD":0,"RANK_#":0,"RANK_%":0,"CONTACTID":3},{"SITEID":19,"CONTID":"","GROUP":"cont","STATUS":"ex","ADDRESS":"Bunsenstr., 68167 Mannheim (Neckarstadt)","LAT":49.5001995,"LON":8.4594875,"NUM_YEARS":5,"YIELD":4700,"RANK_#":0,"RANK_%":0,"CONTACTID":3},{"SITEID":20,"CONTID":"","GROUP":"cont","STATUS":"ex","ADDRESS":"Zum Herrenried 1 \/Herzogenriedstr., 68167 Mannheim (Neckarstadt)","LAT":49.508995,"LON":8.4957304,"NUM_YEARS":4,"YIELD":310,"RANK_#":0,"RANK_%":0,"CONTACTID":10},{"SITEID":21,"CONTID":"","GROUP":"cont","STATUS":"ex","ADDRESS":"Altkircherstr. gg\u00fc. Nr. 72, 68229 Mannheim (Friedrichsfeld)","LAT":49.429805,"LON":8.5695762,"NUM_YEARS":3,"YIELD":0,"RANK_#":0,"RANK_%":0,"CONTACTID":3},{"SITEID":22,"CONTID":"","GROUP":"cont","STATUS":"ex","ADDRESS":"Breslauerstr., 68229 Mannheim (Friedrichsfeld)","LAT":49.3909174,"LON":8.573058,"NUM_YEARS":3,"YIELD":0,"RANK_#":0,"RANK_%":0,"CONTACTID":3},{"SITEID":23,"CONTID":"","GROUP":"cont","STATUS":"ex","ADDRESS":"Riedweg\/Stangenweg, 68535 Edingen","LAT":50.6947421,"LON":4.0418582,"NUM_YEARS":3,"YIELD":100,"RANK_#":0,"RANK_%":0,"CONTACTID":3},{"SITEID":24,"CONTID":"","GROUP":"cont","STATUS":"ex","ADDRESS":"Goethestr., 68535 Edingen-Neckarhausen","LAT":49.44543,"LON":8.6073,"NUM_YEARS":3,"YIELD":0,"RANK_#":0,"RANK_%":0,"CONTACTID":3},{"SITEID":25,"CONTID":"","GROUP":"cont","STATUS":"ex","ADDRESS":"Dammstr. gg\u00fc. Nr. 9, 68167 Mannheim (Neckarstadt)","LAT":49.4942149,"LON":8.4952095,"NUM_YEARS":3,"YIELD":3260,"RANK_#":0,"RANK_%":0,"CONTACTID":3},{"SITEID":26,"CONTID":"","GROUP":"cont","STATUS":"active","ADDRESS":"Ilvesheimerstr. 48, 68526 Ladenburg","LAT":49.4763103,"LON":8.5905018,"NUM_YEARS":7,"YIELD":5840,"RANK_#":43,"RANK_%":0.25,"CONTACTID":11},{"SITEID":27,"CONTID":"","GROUP":"cont","STATUS":"ex","ADDRESS":"Gartenstr., 68219 Mannheim (Rheinau)","LAT":49.5099122,"LON":8.5137517,"NUM_YEARS":5,"YIELD":1680,"RANK_#":0,"RANK_%":0,"CONTACTID":3},{"SITEID":28,"CONTID":"","GROUP":"cont","STATUS":"ex","ADDRESS":"Hansastr., 68167 Mannheim (Neckarstadt)","LAT":49.5099386,"LON":8.4685002,"NUM_YEARS":3,"YIELD":860,"RANK_#":0,"RANK_%":0,"CONTACTID":3},{"SITEID":29,"CONTID":"","GROUP":"cont","STATUS":"ex","ADDRESS":"Unterm\u00fchlaustr. 75, 68167 Mannheim (Neckarstadt)","LAT":49.5081043,"LON":8.4663439,"NUM_YEARS":5,"YIELD":2820,"RANK_#":0,"RANK_%":0,"CONTACTID":12},{"SITEID":30,"CONTID":"","GROUP":"cont","STATUS":"ex","ADDRESS":"Unterm\u00fchlaustr. 69, 68167 Mannheim (Neckarstadt)","LAT":49.5074508,"LON":8.4654439,"NUM_YEARS":3,"YIELD":2060,"RANK_#":0,"RANK_%":0,"CONTACTID":13},{"SITEID":31,"CONTID":"","GROUP":"cont","STATUS":"ex","ADDRESS":"Max-Joseph-Str.\/Holzbauerstr., 68167 Mannheim (Neckarstadt)","LAT":49.4984447,"LON":8.4763675,"NUM_YEARS":3,"YIELD":2670,"RANK_#":0,"RANK_%":0,"CONTACTID":3},{"SITEID":32,"CONTID":"","GROUP":"cont","STATUS":"ex","ADDRESS":"Laurentiusstr. 17, 68169 Mannheim (Neckarstadt)","LAT":49.4981652,"LON":8.4708303,"NUM_YEARS":3,"YIELD":6990,"RANK_#":0,"RANK_%":0,"CONTACTID":14},{"SITEID":33,"CONTID":"","GROUP":"cont","STATUS":"active","ADDRESS":"Bahnhofstr., 68542 Heddesheim","LAT":49.5051918,"LON":8.596616,"NUM_YEARS":8,"YIELD":18720,"RANK_#":9,"RANK_%":0.69,"CONTACTID":3},{"SITEID":34,"CONTID":"","GROUP":"cont","STATUS":"ex","ADDRESS":"Sonderburgerstr.18, 68307 Mannheim (Waldhof)","LAT":49.53672,"LON":8.48151,"NUM_YEARS":3,"YIELD":250,"RANK_#":0,"RANK_%":0,"CONTACTID":15},{"SITEID":35,"CONTID":"","GROUP":"cont","STATUS":"ex","ADDRESS":"Ortelsburgerstr.\/Lilientalerstr., 68307 Mannheim (Sch\u00f6nau)","LAT":49.5558585,"LON":8.4587044,"NUM_YEARS":3,"YIELD":880,"RANK_#":0,"RANK_%":0,"CONTACTID":16},{"SITEID":36,"CONTID":"","GROUP":"cont","STATUS":"ex","ADDRESS":"FriedrichsfelderLandstr. 31, 68723 Schwetzingen","LAT":49.3973062,"LON":8.5653786,"NUM_YEARS":6,"YIELD":1960,"RANK_#":0,"RANK_%":0,"CONTACTID":17},{"SITEID":37,"CONTID":"","GROUP":"cont","STATUS":"ex","ADDRESS":"Viernheimerstr. 227, 68307 Mannheim (Blumenau)","LAT":49.5615839,"LON":8.47872,"NUM_YEARS":3,"YIELD":1090,"RANK_#":0,"RANK_%":0,"CONTACTID":18},{"SITEID":38,"CONTID":"K3075","GROUP":"cont","STATUS":"active","ADDRESS":"Heddesheimerstr., 68549 Ilvesheim","LAT":49.4771873,"LON":8.5686524,"NUM_YEARS":13,"YIELD":20110,"RANK_#":27,"RANK_%":0.46,"CONTACTID":3},{"SITEID":39,"CONTID":"","GROUP":"cont","STATUS":"ex","ADDRESS":"Neckarauer Waldweg, 68199 Mannheim (Neckarau)","LAT":49.4493662,"LON":8.4780988,"NUM_YEARS":5,"YIELD":2340,"RANK_#":0,"RANK_%":0,"CONTACTID":19},{"SITEID":40,"CONTID":"","GROUP":"cont","STATUS":"ex","ADDRESS":"Rohrhoferstr.\/Am Rheinauer See, 68219 Mannheim (Rheinau)","LAT":49.4158441,"LON":8.5323459,"NUM_YEARS":5,"YIELD":5020,"RANK_#":0,"RANK_%":0,"CONTACTID":3},{"SITEID":41,"CONTID":"","GROUP":"cont","STATUS":"ex","ADDRESS":"Sonderburgerstr. 29, 68307 Mannheim (Waldhof)","LAT":49.53896,"LON":8.48071,"NUM_YEARS":3,"YIELD":3040,"RANK_#":0,"RANK_%":0,"CONTACTID":3},{"SITEID":42,"CONTID":"","GROUP":"cont","STATUS":"ex","ADDRESS":"Fardelystr., 68167 Mannheim (Neckarstadt)","LAT":49.5039781,"LON":8.4590599,"NUM_YEARS":3,"YIELD":1770,"RANK_#":0,"RANK_%":0,"CONTACTID":3},{"SITEID":43,"CONTID":"","GROUP":"cont","STATUS":"ex","ADDRESS":"Langlachweg, 68229 Mannheim (Friedrichsfeld)","LAT":49.44634,"LON":8.57109,"NUM_YEARS":6,"YIELD":2430,"RANK_#":0,"RANK_%":0,"CONTACTID":3},{"SITEID":44,"CONTID":"","GROUP":"cont","STATUS":"ex","ADDRESS":"Sandhoferstr. ca. Nr. 45, 68305 Mannheim (Waldhof)","LAT":49.5375371,"LON":8.4985899,"NUM_YEARS":3,"YIELD":660,"RANK_#":0,"RANK_%":0,"CONTACTID":3},{"SITEID":45,"CONTID":"","GROUP":"cont","STATUS":"ex","ADDRESS":"Gau\u00dfstr.\/Kleinfeldstr., 68165 Mannheim (Schwetzingerstadt)","LAT":49.47647,"LON":8.48163,"NUM_YEARS":3,"YIELD":3580,"RANK_#":0,"RANK_%":0,"CONTACTID":3},{"SITEID":46,"CONTID":"","GROUP":"cont","STATUS":"ex","ADDRESS":"Friedrichsfelderstr. 46, 68535 Edingen-Neckarhausen","LAT":49.4472684,"LON":8.6071459,"NUM_YEARS":3,"YIELD":4530,"RANK_#":0,"RANK_%":0,"CONTACTID":20},{"SITEID":47,"CONTID":"","GROUP":"cont","STATUS":"ex","ADDRESS":"Hochst\u00e4ttstr. 1, 68219 Mannheim (Hochst\u00e4tt)","LAT":49.4519303,"LON":8.5374252,"NUM_YEARS":9,"YIELD":7410,"RANK_#":0,"RANK_%":0,"CONTACTID":3},{"SITEID":48,"CONTID":"","GROUP":"cont","STATUS":"ex","ADDRESS":"Frankfurterstr. gg\u00fc.  239 \/Speyerer, 68782 Br\u00fchl","LAT":49.4034723,"LON":8.5318309,"NUM_YEARS":13,"YIELD":23480,"RANK_#":0,"RANK_%":0,"CONTACTID":3},{"SITEID":49,"CONTID":"","GROUP":"cont","STATUS":"ex","ADDRESS":"Heppenheimerstr., 68309 Mannheim (K\u00e4fertal)","LAT":49.51105,"LON":8.52489,"NUM_YEARS":3,"YIELD":1120,"RANK_#":0,"RANK_%":0,"CONTACTID":3},{"SITEID":50,"CONTID":"","GROUP":"cont","STATUS":"ex","ADDRESS":"E.A. Gottheimerstr., 68309 Mannheim (K\u00e4fertal)","LAT":49.5146634,"LON":8.5305853,"NUM_YEARS":3,"YIELD":1650,"RANK_#":0,"RANK_%":0,"CONTACTID":3},{"SITEID":51,"CONTID":"","GROUP":"cont","STATUS":"ex","ADDRESS":"August-Bebel-Str. 46, 68199 Mannheim (Almenhof)","LAT":49.46389,"LON":8.48259,"NUM_YEARS":3,"YIELD":410,"RANK_#":0,"RANK_%":0,"CONTACTID":21},{"SITEID":52,"CONTID":"","GROUP":"cont","STATUS":"ex","ADDRESS":"Sennteichplatz gg\u00fc. Nr. 13, 68199 Mannheim (Almenhof)","LAT":49.4564006,"LON":8.4870173,"NUM_YEARS":3,"YIELD":4250,"RANK_#":0,"RANK_%":0,"CONTACTID":3},{"SITEID":53,"CONTID":"","GROUP":"cont","STATUS":"ex","ADDRESS":"Wachenburgerstr. 194, 68219 Mannheim (Rheinau)","LAT":49.4326266,"LON":8.5315905,"NUM_YEARS":4,"YIELD":1260,"RANK_#":0,"RANK_%":0,"CONTACTID":22},{"SITEID":54,"CONTID":"","GROUP":"cont","STATUS":"ex","ADDRESS":"Am Sportfeld, 68623 Lampertheim","LAT":49.5835,"LON":8.49242,"NUM_YEARS":3,"YIELD":100,"RANK_#":0,"RANK_%":0,"CONTACTID":23},{"SITEID":55,"CONTID":"","GROUP":"cont","STATUS":"ex","ADDRESS":"Beim Hochwald, 68305 Mannheim (Gartenstadt)","LAT":49.5283433,"LON":8.51146,"NUM_YEARS":3,"YIELD":880,"RANK_#":0,"RANK_%":0,"CONTACTID":3},{"SITEID":56,"CONTID":"","GROUP":"cont","STATUS":"ex","ADDRESS":"Sandtorfer Weg gg\u00fc. Nr. 9, 68623 Lampertheim","LAT":49.5997267,"LON":8.466599,"NUM_YEARS":3,"YIELD":1080,"RANK_#":0,"RANK_%":0,"CONTACTID":3},{"SITEID":57,"CONTID":"","GROUP":"cont","STATUS":"ex","ADDRESS":"Saarburger Ring\/Markircher Str., 68229 Mannheim (Friedrichsfeld)","LAT":49.44455,"LON":8.57153,"NUM_YEARS":3,"YIELD":2270,"RANK_#":0,"RANK_%":0,"CONTACTID":3},{"SITEID":58,"CONTID":"","GROUP":"cont","STATUS":"ex","ADDRESS":"Kattowitzer Zeile, 68305 Mannheim (Sch\u00f6nau)","LAT":49.54145,"LON":8.4735,"NUM_YEARS":3,"YIELD":2080,"RANK_#":0,"RANK_%":0,"CONTACTID":3},{"SITEID":59,"CONTID":"","GROUP":"cont","STATUS":"ex","ADDRESS":"Mittelgewannweg 16, 69123 Heidelberg (Wieblingen)","LAT":49.43939,"LON":8.63447,"NUM_YEARS":5,"YIELD":2310,"RANK_#":0,"RANK_%":0,"CONTACTID":24},{"SITEID":60,"CONTID":"","GROUP":"cont","STATUS":"ex","ADDRESS":"Leipzigerstr.\/Zwickauer Weg, 68309 Mannheim (Vogelstang)","LAT":49.5116224,"LON":8.547176,"NUM_YEARS":3,"YIELD":1970,"RANK_#":0,"RANK_%":0,"CONTACTID":25},{"SITEID":61,"CONTID":"","GROUP":"cont","STATUS":"ex","ADDRESS":"Werderstr.\/Schlatterstr, 68542 Heddesheim","LAT":49.50205,"LON":8.60569,"NUM_YEARS":3,"YIELD":2670,"RANK_#":0,"RANK_%":0,"CONTACTID":3},{"SITEID":62,"CONTID":"","GROUP":"cont","STATUS":"ex","ADDRESS":"Kriemhildstr. 26\/Nibelungenstr., 68519 Viernheim","LAT":49.5429816,"LON":8.5697561,"NUM_YEARS":3,"YIELD":240,"RANK_#":0,"RANK_%":0,"CONTACTID":26},{"SITEID":63,"CONTID":"","GROUP":"cont","STATUS":"ex","ADDRESS":"Albert-Fritz-Weg gg\u00fc. Nr. 15, 68307 Mannheim (Sch\u00f6nau)","LAT":49.5558585,"LON":8.4587044,"NUM_YEARS":3,"YIELD":1950,"RANK_#":0,"RANK_%":0,"CONTACTID":3},{"SITEID":64,"CONTID":"","GROUP":"cont","STATUS":"ex","ADDRESS":"Viernheimer Weg, 68307 Mannheim (Sch\u00f6nau)","LAT":49.55318,"LON":8.46489,"NUM_YEARS":3,"YIELD":1570,"RANK_#":0,"RANK_%":0,"CONTACTID":3},{"SITEID":65,"CONTID":"","GROUP":"cont","STATUS":"ex","ADDRESS":"Stationsstr., 68305 Mannheim (Luzenberg)","LAT":49.5162462,"LON":8.4769839,"NUM_YEARS":3,"YIELD":1210,"RANK_#":0,"RANK_%":0,"CONTACTID":3},{"SITEID":66,"CONTID":"","GROUP":"cont","STATUS":"ex","ADDRESS":"Nogent-le-Roi-Platz, 68542 Heddesheim","LAT":49.5077027,"LON":8.6059128,"NUM_YEARS":3,"YIELD":1030,"RANK_#":0,"RANK_%":0,"CONTACTID":3},{"SITEID":67,"CONTID":"","GROUP":"cont","STATUS":"ex","ADDRESS":"Leinpfad \/Gaswerkstr., 68307 Mannheim (Sandhofen)","LAT":49.5384966,"LON":8.4478857,"NUM_YEARS":3,"YIELD":410,"RANK_#":0,"RANK_%":0,"CONTACTID":3},{"SITEID":68,"CONTID":"","GROUP":"cont","STATUS":"ex","ADDRESS":"Wormser Str. 81, 68623 Lampertheim","LAT":49.60542,"LON":8.45602,"NUM_YEARS":4,"YIELD":770,"RANK_#":0,"RANK_%":0,"CONTACTID":27},{"SITEID":69,"CONTID":"","GROUP":"cont","STATUS":"ex","ADDRESS":"Rud.-Maus-Str. 14, 68307 Mannheim (Sch\u00f6nau)","LAT":49.552598,"LON":8.475556,"NUM_YEARS":3,"YIELD":1310,"RANK_#":0,"RANK_%":0,"CONTACTID":28},{"SITEID":70,"CONTID":"","GROUP":"cont","STATUS":"ex","ADDRESS":"Im Schumachergewann, 69123 Heidelberg (Wieblingen)","LAT":49.42459,"LON":8.63929,"NUM_YEARS":3,"YIELD":240,"RANK_#":0,"RANK_%":0,"CONTACTID":29},{"SITEID":71,"CONTID":"","GROUP":"cont","STATUS":"ex","ADDRESS":"Viernheimer Weg 67-70, 68307 Mannheim (Sch\u00f6nau)","LAT":49.5505969,"LON":8.4540775,"NUM_YEARS":3,"YIELD":1950,"RANK_#":0,"RANK_%":0,"CONTACTID":30},{"SITEID":72,"CONTID":"","GROUP":"cont","STATUS":"ex","ADDRESS":"Karlsruher Str., 68219 Mannheim (Rheinau)","LAT":49.4329013,"LON":8.5246229,"NUM_YEARS":5,"YIELD":3000,"RANK_#":0,"RANK_%":0,"CONTACTID":3},{"SITEID":73,"CONTID":"","GROUP":"cont","STATUS":"ex","ADDRESS":"Mannheimer Str. \/Gneisenaustr., 69115 Heidelberg (Weststadt)","LAT":49.4077529,"LON":8.6684425,"NUM_YEARS":3,"YIELD":880,"RANK_#":0,"RANK_%":0,"CONTACTID":3},{"SITEID":74,"CONTID":"","GROUP":"cont","STATUS":"ex","ADDRESS":"Flurstra\u00dfe \/Ebernburgstr., 67065 Ludwigshafen (Mundenheim)","LAT":49.4561442,"LON":8.421271,"NUM_YEARS":3,"YIELD":2490,"RANK_#":0,"RANK_%":0,"CONTACTID":3},{"SITEID":75,"CONTID":"L0123","GROUP":"cont","STATUS":"active","ADDRESS":"B\u00f6cklinstr. \/Thorwaldsenstr., 67061 Ludwigshafen (S\u00fcd)","LAT":49.4685685,"LON":8.4460468,"NUM_YEARS":13,"YIELD":26710,"RANK_#":12,"RANK_%":0.61,"CONTACTID":31},{"SITEID":76,"CONTID":"","GROUP":"cont","STATUS":"ex","ADDRESS":"Wasgaustr. \/Maudacher Str., 67065 Ludwigshafen (Mundenheim)","LAT":49.45894,"LON":8.40549,"NUM_YEARS":3,"YIELD":220,"RANK_#":0,"RANK_%":0,"CONTACTID":3},{"SITEID":77,"CONTID":"","GROUP":"cont","STATUS":"ex","ADDRESS":"Bleichstr. \/Saarlandstr., 67061 Ludwigshafen (S\u00fcd)","LAT":49.4697792,"LON":8.4359208,"NUM_YEARS":3,"YIELD":450,"RANK_#":0,"RANK_%":0,"CONTACTID":3},{"SITEID":78,"CONTID":"","GROUP":"cont","STATUS":"active","ADDRESS":"Bleichstr. \/Mundenheimer Str., 67061 Ludwigshafen (S\u00fcd)","LAT":49.4687898,"LON":8.4440066,"NUM_YEARS":8,"YIELD":4840,"RANK_#":48,"RANK_%":0.18,"CONTACTID":32},{"SITEID":79,"CONTID":"","GROUP":"cont","STATUS":"active","ADDRESS":"Mundenheimer Str. \/Adlerdamm, 67061 Ludwigshafen (S\u00fcd)","LAT":49.4641872,"LON":8.4367044,"NUM_YEARS":8,"YIELD":5230,"RANK_#":47,"RANK_%":0.19,"CONTACTID":-1},{"SITEID":80,"CONTID":"K1732","GROUP":"cont","STATUS":"active","ADDRESS":"Saarlandstr. 38 \/Adlerdamm, 67061 Ludwigshafen (S\u00fcd)","LAT":49.4641872,"LON":8.4367044,"NUM_YEARS":13,"YIELD":9600,"RANK_#":46,"RANK_%":0.22,"CONTACTID":34},{"SITEID":81,"CONTID":"","GROUP":"cont","STATUS":"ex","ADDRESS":"Sebastian-Bach-Str. 2, 67061 Ludwigshafen (S\u00fcd)","LAT":49.4723937,"LON":8.4425202,"NUM_YEARS":3,"YIELD":80,"RANK_#":0,"RANK_%":0,"CONTACTID":35},{"SITEID":82,"CONTID":"","GROUP":"cont","STATUS":"ex","ADDRESS":"Hoher Weg 26, 67067 Ludwigshafen (Rheing\u00f6nheim)","LAT":49.44256,"LON":8.41943,"NUM_YEARS":4,"YIELD":870,"RANK_#":0,"RANK_%":0,"CONTACTID":3},{"SITEID":83,"CONTID":"K3026","GROUP":"cont","STATUS":"active","ADDRESS":"Chenoverstr. \/Mainstr., 67117 Limburgerhof","LAT":49.4230206,"LON":8.395799,"NUM_YEARS":13,"YIELD":33840,"RANK_#":4,"RANK_%":0.77,"CONTACTID":3},{"SITEID":84,"CONTID":"K3066","GROUP":"cont","STATUS":"active","ADDRESS":"Goethestr., 67165 Waldsee","LAT":49.393758,"LON":8.4347311,"NUM_YEARS":13,"YIELD":32120,"RANK_#":6,"RANK_%":0.73,"CONTACTID":3},{"SITEID":85,"CONTID":"","GROUP":"cont","STATUS":"ex","ADDRESS":"Untere Hart \/Odenwaldring 16, 67117 Limburgerhof","LAT":49.4162177,"LON":8.3996488,"NUM_YEARS":3,"YIELD":60,"RANK_#":0,"RANK_%":0,"CONTACTID":38},{"SITEID":86,"CONTID":"","GROUP":"cont","STATUS":"ex","ADDRESS":"Triflisring, 67117 Limburgerhof","LAT":49.41376,"LON":8.38845,"NUM_YEARS":3,"YIELD":550,"RANK_#":0,"RANK_%":0,"CONTACTID":3},{"SITEID":87,"CONTID":"","GROUP":"cont","STATUS":"ex","ADDRESS":"Albert-Einstein, 67117 Limburgerhof","LAT":49.42459,"LON":8.37976,"NUM_YEARS":3,"YIELD":1960,"RANK_#":0,"RANK_%":0,"CONTACTID":3},{"SITEID":88,"CONTID":"","GROUP":"cont","STATUS":"ex","ADDRESS":"Johannes-Essig-Str. gg\u00fc. Nr.3, 67067 Ludwigshafen (Maudach)","LAT":49.4401179,"LON":8.3948594,"NUM_YEARS":3,"YIELD":20,"RANK_#":0,"RANK_%":0,"CONTACTID":3},{"SITEID":89,"CONTID":"","GROUP":"cont","STATUS":"active","ADDRESS":"Mozartstr. \/Dammstr., 67112 Mutterstadt","LAT":49.44273,"LON":8.3469,"NUM_YEARS":8,"YIELD":13900,"RANK_#":22,"RANK_%":0.51,"CONTACTID":3},{"SITEID":90,"CONTID":"","GROUP":"cont","STATUS":"ex","ADDRESS":"Oggersheimer Str., 67112 Mutterstadt","LAT":49.4458782,"LON":8.3542211,"NUM_YEARS":3,"YIELD":110,"RANK_#":0,"RANK_%":0,"CONTACTID":3},{"SITEID":91,"CONTID":"","GROUP":"cont","STATUS":"ex","ADDRESS":"Speyerer Str., 67071 Ludwigshafen (Oggersheim)","LAT":49.47808,"LON":8.36613,"NUM_YEARS":3,"YIELD":20,"RANK_#":0,"RANK_%":0,"CONTACTID":3},{"SITEID":92,"CONTID":"","GROUP":"cont","STATUS":"ex","ADDRESS":"Oggersheimer Str. \/Am H\u00fcttengraben, 67071 Ludwigshafen (Ruchheim)","LAT":49.4791085,"LON":8.3580714,"NUM_YEARS":3,"YIELD":0,"RANK_#":0,"RANK_%":0,"CONTACTID":3},{"SITEID":93,"CONTID":"H3130","GROUP":"cont","STATUS":"active","ADDRESS":"Magdeburger Str., 67071 Ludwigshafen (Ruchheim)","LAT":49.4759455,"LON":8.3339731,"NUM_YEARS":13,"YIELD":28180,"RANK_#":11,"RANK_%":0.64,"CONTACTID":3},{"SITEID":94,"CONTID":"","GROUP":"cont","STATUS":"ex","ADDRESS":"Maxdorfer Str., 67071 Ludwigshafen (Ruchheim)","LAT":49.4767175,"LON":8.3271379,"NUM_YEARS":3,"YIELD":160,"RANK_#":0,"RANK_%":0,"CONTACTID":3},{"SITEID":95,"CONTID":"","GROUP":"cont","STATUS":"ex","ADDRESS":"Saarburger Str. \/Mannheimer Str., 67071 Ludwigshafen (Oggersheim)","LAT":49.4891,"LON":8.39081,"NUM_YEARS":3,"YIELD":0,"RANK_#":0,"RANK_%":0,"CONTACTID":3},{"SITEID":96,"CONTID":"","GROUP":"cont","STATUS":"ex","ADDRESS":"Wollstr., 67065 Ludwigshafen (Gartenstadt)","LAT":49.47417,"LON":8.41372,"NUM_YEARS":3,"YIELD":60,"RANK_#":0,"RANK_%":0,"CONTACTID":3},{"SITEID":97,"CONTID":"L0062","GROUP":"cont","STATUS":"active","ADDRESS":"Speyerer Str. \/Frankenfelsstr., 67071 Ludwigshafen (Oggersheim)","LAT":49.4825045,"LON":8.3689251,"NUM_YEARS":13,"YIELD":23810,"RANK_#":20,"RANK_%":0.54,"CONTACTID":3},{"SITEID":98,"CONTID":"","GROUP":"cont","STATUS":"active","ADDRESS":"Albert-Haueisen-Ring, 67071 Ludwigshafen (Oggersheim)","LAT":49.50337,"LON":8.38322,"NUM_YEARS":7,"YIELD":5560,"RANK_#":45,"RANK_%":0.23,"CONTACTID":3},{"SITEID":99,"CONTID":"","GROUP":"cont","STATUS":"ex","ADDRESS":"Rheinhorststr., 67071 Ludwigshafen (Notwende)","LAT":49.50268,"LON":8.37162,"NUM_YEARS":3,"YIELD":360,"RANK_#":0,"RANK_%":0,"CONTACTID":3},{"SITEID":100,"CONTID":"","GROUP":"cont","STATUS":"ex","ADDRESS":"Matthias-Gr\u00fcnewald-Str. \/A.-D\u00fcrer-Ring, 67227 Frankenthal (S\u00fcd)","LAT":49.542242,"LON":8.356587,"NUM_YEARS":3,"YIELD":2260,"RANK_#":0,"RANK_%":0,"CONTACTID":3},{"SITEID":101,"CONTID":"","GROUP":"cont","STATUS":"ex","ADDRESS":"Verdistr. \/Studernheimer Weg, 67227 Frankenthal (Eppstein)","LAT":49.542242,"LON":8.356587,"NUM_YEARS":3,"YIELD":120,"RANK_#":0,"RANK_%":0,"CONTACTID":3},{"SITEID":102,"CONTID":"","GROUP":"cont","STATUS":"ex","ADDRESS":"Eppsteiner Str. \/Bahn\u00fcbergang, 67227 Frankenthal (Flomersheim)","LAT":49.542242,"LON":8.356587,"NUM_YEARS":3,"YIELD":880,"RANK_#":0,"RANK_%":0,"CONTACTID":3},{"SITEID":103,"CONTID":"","GROUP":"cont","STATUS":"ex","ADDRESS":"Marktstr., 67245 Lambsheim","LAT":49.51263,"LON":8.29381,"NUM_YEARS":5,"YIELD":1580,"RANK_#":0,"RANK_%":0,"CONTACTID":3},{"SITEID":104,"CONTID":"","GROUP":"cont","STATUS":"ex","ADDRESS":"Gotthilf-Salzmann-Str. \/M\u00fchlbergstr., 67227 Frankenthal (Studernheim)","LAT":49.542242,"LON":8.356587,"NUM_YEARS":3,"YIELD":580,"RANK_#":0,"RANK_%":0,"CONTACTID":3},{"SITEID":105,"CONTID":"","GROUP":"cont","STATUS":"ex","ADDRESS":"Fred-Joachim-Schoeps-Str., 68293 Mannheim","LAT":49.44291,"LON":8.58236,"NUM_YEARS":3,"YIELD":3150,"RANK_#":0,"RANK_%":0,"CONTACTID":3},{"SITEID":106,"CONTID":"","GROUP":"cont","STATUS":"active","ADDRESS":"Lindenweg gg18 ehem ne52 \/Lucas-Cranach, 69126 Heidelberg (Rohrbach)","LAT":49.3693394,"LON":8.6935081,"NUM_YEARS":8,"YIELD":13010,"RANK_#":23,"RANK_%":0.48,"CONTACTID":40},{"SITEID":107,"CONTID":"","GROUP":"cont","STATUS":"ex","ADDRESS":"Freiburgerstr.\/Kolbenzeil, 69126 Heidelberg (Rohrbach)","LAT":49.3758859,"LON":8.6822799,"NUM_YEARS":3,"YIELD":0,"RANK_#":0,"RANK_%":0,"CONTACTID":3},{"SITEID":108,"CONTID":"","GROUP":"cont","STATUS":"ex","ADDRESS":"Heinrich-Fuchs-Str., 69126 Heidelberg (Rohrbach)","LAT":49.3794955,"LON":8.6815615,"NUM_YEARS":3,"YIELD":1290,"RANK_#":0,"RANK_%":0,"CONTACTID":3},{"SITEID":109,"CONTID":"L0057","GROUP":"cont","STATUS":"active","ADDRESS":"Hagellachstr.\/Wolfgangstr., 69123 Heidelberg (Kirchheim)","LAT":49.3762891,"LON":8.6715587,"NUM_YEARS":13,"YIELD":19250,"RANK_#":31,"RANK_%":0.44,"CONTACTID":3},{"SITEID":110,"CONTID":"","GROUP":"cont","STATUS":"ex","ADDRESS":"Roggenstr. gg\u00fc. Nr. 15, 68305 Mannheim (Waldhof)","LAT":49.5375371,"LON":8.4985899,"NUM_YEARS":3,"YIELD":2230,"RANK_#":0,"RANK_%":0,"CONTACTID":3},{"SITEID":111,"CONTID":"","GROUP":"cont","STATUS":"ex","ADDRESS":"Luftschifferstr.\/Taubenstr., 68307 Mannheim (Sandhofen)","LAT":49.5451762,"LON":8.4515839,"NUM_YEARS":3,"YIELD":1650,"RANK_#":0,"RANK_%":0,"CONTACTID":3},{"SITEID":112,"CONTID":"","GROUP":"cont","STATUS":"ex","ADDRESS":"Gro\u00df-Gerauer-Str.\/Hoher Weg, 68307 Mannheim (Sandhofen)","LAT":49.5481056,"LON":8.4445689,"NUM_YEARS":3,"YIELD":2110,"RANK_#":0,"RANK_%":0,"CONTACTID":3},{"SITEID":113,"CONTID":"","GROUP":"cont","STATUS":"ex","ADDRESS":"Lilienthalstr., 68307 Mannheim (Sandhofen)","LAT":49.54624,"LON":8.46913,"NUM_YEARS":3,"YIELD":620,"RANK_#":0,"RANK_%":0,"CONTACTID":3},{"SITEID":114,"CONTID":"","GROUP":"cont","STATUS":"active","ADDRESS":"Bleichstr. ca. Nr. 63, 67061 Ludwigshafen (S\u00fcd)","LAT":49.4692143,"LON":8.4520572,"NUM_YEARS":7,"YIELD":3600,"RANK_#":51,"RANK_%":0.15,"CONTACTID":3},{"SITEID":115,"CONTID":"","GROUP":"cont","STATUS":"ex","ADDRESS":"Spiegelstr., 68305 Mannheim (Waldhof)","LAT":49.5188408,"LON":8.4774585,"NUM_YEARS":3,"YIELD":0,"RANK_#":0,"RANK_%":0,"CONTACTID":3},{"SITEID":116,"CONTID":"","GROUP":"cont","STATUS":"ex","ADDRESS":"Im H\u00fcttenb\u00fchl, 69123 Heidelberg (Kirchheim)","LAT":49.3833197,"LON":8.6604436,"NUM_YEARS":9,"YIELD":15970,"RANK_#":0,"RANK_%":0,"CONTACTID":3},{"SITEID":117,"CONTID":"","GROUP":"cont","STATUS":"ex","ADDRESS":"Bruchh\u00e4user Weg\/G-Von-Ubisch-Str., 69123 Heidelberg (Kirchheim)","LAT":49.4160136,"LON":8.6171786,"NUM_YEARS":3,"YIELD":1630,"RANK_#":0,"RANK_%":0,"CONTACTID":3},{"SITEID":118,"CONTID":"","GROUP":"cont","STATUS":"ex","ADDRESS":"Martin-Greif-Str.\/Ganghoferstr, 67061 Ludwigshafen (S\u00fcd)","LAT":49.4669051,"LON":8.4305533,"NUM_YEARS":10,"YIELD":16810,"RANK_#":0,"RANK_%":0,"CONTACTID":3},{"SITEID":119,"CONTID":"K1746","GROUP":"cont","STATUS":"active","ADDRESS":"Georg-B\u00fcchnerstr. \/Georg-Herwegh-Str., 67061 Ludwigshafen (S\u00fcd)","LAT":49.47169,"LON":8.4341,"NUM_YEARS":13,"YIELD":25540,"RANK_#":15,"RANK_%":0.58,"CONTACTID":3},{"SITEID":120,"CONTID":"","GROUP":"cont","STATUS":"ex","ADDRESS":"Rohrlachstr. gg\u00fc. Nr. 38, 68293 Mannheim (Hochst\u00e4tt)","LAT":49.4874592,"LON":8.4660395,"NUM_YEARS":3,"YIELD":2910,"RANK_#":0,"RANK_%":0,"CONTACTID":3},{"SITEID":121,"CONTID":"","GROUP":"cont","STATUS":"ex","ADDRESS":"Speyererstr.\/Feldbergstr., 68199 Mannheim (Almenhof)","LAT":49.4604419,"LON":8.4787514,"NUM_YEARS":3,"YIELD":2940,"RANK_#":0,"RANK_%":0,"CONTACTID":3},{"SITEID":122,"CONTID":"","GROUP":"cont","STATUS":"ex","ADDRESS":"Hans-Sachs-Ring gg\u00fc. Nr. 40, 68199 Mannheim (Almenhof)","LAT":49.4564006,"LON":8.4870173,"NUM_YEARS":3,"YIELD":2110,"RANK_#":0,"RANK_%":0,"CONTACTID":3},{"SITEID":123,"CONTID":"","GROUP":"cont","STATUS":"ex","ADDRESS":"Rennershofstr. gg\u00fc. Nr. 19, 68163 Mannheim (Lindenhof)","LAT":49.4677562,"LON":8.506636,"NUM_YEARS":3,"YIELD":3510,"RANK_#":0,"RANK_%":0,"CONTACTID":3},{"SITEID":124,"CONTID":"","GROUP":"cont","STATUS":"ex","ADDRESS":"Erlenweg 22, 69126 Heidelberg (Rohrbach)","LAT":49.37595,"LON":8.67649,"NUM_YEARS":5,"YIELD":4640,"RANK_#":0,"RANK_%":0,"CONTACTID":3},{"SITEID":125,"CONTID":"","GROUP":"cont","STATUS":"ex","ADDRESS":"Chr. Bitter-Str. gg\u00fc. Nr. 36 \/Schleifweg, 69126 Heidelberg (Rohrbach)","LAT":49.3723773,"LON":8.6908734,"NUM_YEARS":3,"YIELD":1980,"RANK_#":0,"RANK_%":0,"CONTACTID":3},{"SITEID":126,"CONTID":"","GROUP":"cont","STATUS":"ex","ADDRESS":"Freiburgerstr. 4, 69126 Heidelberg (Rohrbach)","LAT":49.37407,"LON":8.68304,"NUM_YEARS":3,"YIELD":0,"RANK_#":0,"RANK_%":0,"CONTACTID":3},{"SITEID":127,"CONTID":"","GROUP":"cont","STATUS":"ex","ADDRESS":"Panoramastr.\/G\u00f6rrestr., 69126 Heidelberg (S\u00fcdstadt)","LAT":49.3693394,"LON":8.6935081,"NUM_YEARS":3,"YIELD":0,"RANK_#":0,"RANK_%":0,"CONTACTID":3},{"SITEID":128,"CONTID":"","GROUP":"cont","STATUS":"ex","ADDRESS":"Steigerweg gg\u00fc. Nr. 55, 69126 Heidelberg (S\u00fcdstadt)","LAT":49.3693394,"LON":8.6935081,"NUM_YEARS":3,"YIELD":890,"RANK_#":0,"RANK_%":0,"CONTACTID":3},{"SITEID":129,"CONTID":"","GROUP":"cont","STATUS":"ex","ADDRESS":"M\u00f6nchhofstr.\/Wielandtstr., 69120 Heidelberg (Handschuhsheim)","LAT":49.4166698,"LON":8.6814119,"NUM_YEARS":3,"YIELD":170,"RANK_#":0,"RANK_%":0,"CONTACTID":3},{"SITEID":130,"CONTID":"","GROUP":"cont","STATUS":"ex","ADDRESS":"Blumenthalstr.\/Furtw\u00e4nglerstr., 69120 Heidelberg (Handschuhsheim)","LAT":49.42013,"LON":8.6808354,"NUM_YEARS":3,"YIELD":0,"RANK_#":0,"RANK_%":0,"CONTACTID":3},{"SITEID":131,"CONTID":"","GROUP":"cont","STATUS":"ex","ADDRESS":"Uferstr., 69120 Heidelberg (Handschuhsheim)","LAT":49.41263,"LON":8.68622,"NUM_YEARS":3,"YIELD":100,"RANK_#":0,"RANK_%":0,"CONTACTID":3},{"SITEID":132,"CONTID":"","GROUP":"cont","STATUS":"ex","ADDRESS":"Th.Heuss-Str.\/Ahornweg, 69221 Dossenheim","LAT":49.4504069,"LON":8.6645437,"NUM_YEARS":4,"YIELD":3040,"RANK_#":0,"RANK_%":0,"CONTACTID":3},{"SITEID":133,"CONTID":"","GROUP":"cont","STATUS":"ex","ADDRESS":"Vangerowstr., 69115 Heidelberg (Bergheim)","LAT":49.40859,"LON":8.67392,"NUM_YEARS":3,"YIELD":0,"RANK_#":0,"RANK_%":0,"CONTACTID":3},{"SITEID":134,"CONTID":"","GROUP":"cont","STATUS":"ex","ADDRESS":"Rheintalstr.\/Duisburgerstr., 68723 Schwetzingen (Hirschacker)","LAT":49.40184,"LON":8.55755,"NUM_YEARS":3,"YIELD":1100,"RANK_#":0,"RANK_%":0,"CONTACTID":3},{"SITEID":135,"CONTID":"","GROUP":"cont","STATUS":"ex","ADDRESS":"Hallenweg, 68219 Mannheim (Rheinau)","LAT":49.4407897,"LON":8.5436909,"NUM_YEARS":12,"YIELD":11060,"RANK_#":0,"RANK_%":0,"CONTACTID":3},{"SITEID":136,"CONTID":"","GROUP":"cont","STATUS":"ex","ADDRESS":"Essenerstr., 68219 Mannheim (Rheinau)","LAT":49.4212789,"LON":8.516414,"NUM_YEARS":3,"YIELD":310,"RANK_#":0,"RANK_%":0,"CONTACTID":3},{"SITEID":137,"CONTID":"","GROUP":"cont","STATUS":"ex","ADDRESS":"Frankfurter\/Bismarckstr\/Werkstr, 68782 Br\u00fchl (Rohrbach)","LAT":49.40857,"LON":8.52968,"NUM_YEARS":6,"YIELD":5210,"RANK_#":0,"RANK_%":0,"CONTACTID":3},{"SITEID":138,"CONTID":"","GROUP":"cont","STATUS":"ex","ADDRESS":"B\u00e4umelweg \/Geranienweg, 68782 Br\u00fchl (S\u00fcd)","LAT":49.39867,"LON":8.5403,"NUM_YEARS":3,"YIELD":1790,"RANK_#":0,"RANK_%":0,"CONTACTID":3},{"SITEID":139,"CONTID":"","GROUP":"cont","STATUS":"active","ADDRESS":"Friedensstr. gg\u00fc. Nr. 23, 68782 Br\u00fchl (S\u00fcd)","LAT":49.4034723,"LON":8.5318309,"NUM_YEARS":8,"YIELD":12160,"RANK_#":30,"RANK_%":0.45,"CONTACTID":3},{"SITEID":140,"CONTID":"","GROUP":"cont","STATUS":"ex","ADDRESS":"Siedlerstr., 68723 Schwetzingen (Hirschacker)","LAT":49.4094909,"LON":8.5505026,"NUM_YEARS":3,"YIELD":430,"RANK_#":0,"RANK_%":0,"CONTACTID":3},{"SITEID":141,"CONTID":"","GROUP":"cont","STATUS":"ex","ADDRESS":"Von-Kieffer-Str., 67067 Ludwigshafen (Maudach)","LAT":49.45482,"LON":8.4005,"NUM_YEARS":3,"YIELD":3600,"RANK_#":0,"RANK_%":0,"CONTACTID":3},{"SITEID":142,"CONTID":"","GROUP":"cont","STATUS":"ex","ADDRESS":"Wegelnburgweg, 67065 Ludwigshafen (Mundenheim)","LAT":49.4591559,"LON":8.4309733,"NUM_YEARS":3,"YIELD":3410,"RANK_#":0,"RANK_%":0,"CONTACTID":3},{"SITEID":143,"CONTID":"","GROUP":"cont","STATUS":"ex","ADDRESS":"Giuliniplatz, 67065 Ludwigshafen (Mundenheim)","LAT":49.4550704,"LON":8.4249117,"NUM_YEARS":5,"YIELD":1320,"RANK_#":0,"RANK_%":0,"CONTACTID":3},{"SITEID":144,"CONTID":"","GROUP":"cont","STATUS":"ex","ADDRESS":"Oppauerstr., 68305 Mannheim (Waldhof)","LAT":49.5280583,"LON":8.4767997,"NUM_YEARS":3,"YIELD":800,"RANK_#":0,"RANK_%":0,"CONTACTID":3},{"SITEID":145,"CONTID":"","GROUP":"cont","STATUS":"ex","ADDRESS":"Karlsbaderstr., 67065 Ludwigshafen (Gartenstadt)","LAT":49.47642,"LON":8.40539,"NUM_YEARS":3,"YIELD":2260,"RANK_#":0,"RANK_%":0,"CONTACTID":3},{"SITEID":146,"CONTID":"","GROUP":"cont","STATUS":"ex","ADDRESS":"He\u00dfheimerstr., 67259 He\u00dfheim (Beindersheim)","LAT":49.5584811,"LON":8.3147186,"NUM_YEARS":3,"YIELD":210,"RANK_#":0,"RANK_%":0,"CONTACTID":3},{"SITEID":147,"CONTID":"","GROUP":"cont","STATUS":"ex","ADDRESS":"Frankenthalstr., 67258 He\u00dfheim (He\u00dfheim)","LAT":49.546,"LON":8.309,"NUM_YEARS":3,"YIELD":1640,"RANK_#":0,"RANK_%":0,"CONTACTID":3},{"SITEID":148,"CONTID":"","GROUP":"cont","STATUS":"ex","ADDRESS":"Kanaldamm\/Br\u00fcssler Ring, 67227 Frankenthal","LAT":49.542242,"LON":8.356587,"NUM_YEARS":3,"YIELD":0,"RANK_#":0,"RANK_%":0,"CONTACTID":3},{"SITEID":149,"CONTID":"","GROUP":"cont","STATUS":"ex","ADDRESS":"Fr\u00fchlingsstr., 67227 Frankenthal (M\u00f6rsch)","LAT":49.542242,"LON":8.356587,"NUM_YEARS":6,"YIELD":5950,"RANK_#":0,"RANK_%":0,"CONTACTID":3},{"SITEID":150,"CONTID":"","GROUP":"cont","STATUS":"ex","ADDRESS":"Schlachthausweg, 67227 Frankenthal","LAT":49.5422181,"LON":8.3606066,"NUM_YEARS":3,"YIELD":230,"RANK_#":0,"RANK_%":0,"CONTACTID":3},{"SITEID":151,"CONTID":"","GROUP":"cont","STATUS":"ex","ADDRESS":"Blumenweg\/Kirschgartsh\u00e4userstr., 68307 Mannheim (Scharhof)","LAT":49.55949,"LON":8.4481335,"NUM_YEARS":3,"YIELD":2030,"RANK_#":0,"RANK_%":0,"CONTACTID":3},{"SITEID":152,"CONTID":"","GROUP":"cont","STATUS":"ex","ADDRESS":"Wilhelm-Hauff-Str., 67227 Frankenthal","LAT":49.5513308,"LON":8.3556238,"NUM_YEARS":3,"YIELD":940,"RANK_#":0,"RANK_%":0,"CONTACTID":3},{"SITEID":153,"CONTID":"","GROUP":"cont","STATUS":"ex","ADDRESS":"Am Kanal, 67227 Frankenthal","LAT":49.53585,"LON":8.36807,"NUM_YEARS":3,"YIELD":310,"RANK_#":0,"RANK_%":0,"CONTACTID":3},{"SITEID":154,"CONTID":"","GROUP":"cont","STATUS":"ex","ADDRESS":"Lambsheimerstr., 67227 Frankenthal","LAT":49.53079,"LON":8.3368306,"NUM_YEARS":3,"YIELD":0,"RANK_#":0,"RANK_%":0,"CONTACTID":3},{"SITEID":155,"CONTID":"L0037","GROUP":"cont","STATUS":"active","ADDRESS":"Kreuzgraben, 67071 Ludwigshafen (Ruchheim)","LAT":49.4668256,"LON":8.3214909,"NUM_YEARS":13,"YIELD":11430,"RANK_#":42,"RANK_%":0.26,"CONTACTID":3},{"SITEID":156,"CONTID":"","GROUP":"cont","STATUS":"ex","ADDRESS":"Theodor-Storm-Str., 68259 Mannheim (Feudenheim)","LAT":49.490372,"LON":8.5382923,"NUM_YEARS":3,"YIELD":4780,"RANK_#":0,"RANK_%":0,"CONTACTID":3},{"SITEID":157,"CONTID":"H0828","GROUP":"cont","STATUS":"active","ADDRESS":"Stra\u00dfe zur Autobahn, 69221 Dossenheim","LAT":49.4485694,"LON":8.6724036,"NUM_YEARS":13,"YIELD":24380,"RANK_#":17,"RANK_%":0.55,"CONTACTID":3},{"SITEID":158,"CONTID":"","GROUP":"cont","STATUS":"ex","ADDRESS":"Inselstr., 68169 Mannheim (Neckarstadt)","LAT":49.5056053,"LON":8.4489342,"NUM_YEARS":3,"YIELD":690,"RANK_#":0,"RANK_%":0,"CONTACTID":3},{"SITEID":159,"CONTID":"K3085","GROUP":"cont","STATUS":"active","ADDRESS":"Alte Frankfurter Str. gg\u00fc. 8, 68305 Mannheim (Waldhof)","LAT":49.5375371,"LON":8.4985899,"NUM_YEARS":13,"YIELD":24440,"RANK_#":19,"RANK_%":0.55,"CONTACTID":3},{"SITEID":160,"CONTID":"","GROUP":"cont","STATUS":"ex","ADDRESS":"Maudacherstr\/Friesenheimer Weg, 67067 Ludwigshafen (Maudach)","LAT":49.4596125,"LON":8.3973244,"NUM_YEARS":3,"YIELD":1980,"RANK_#":0,"RANK_%":0,"CONTACTID":3},{"SITEID":161,"CONTID":"K3036","GROUP":"cont","STATUS":"active","ADDRESS":"Riedstr., 67067 Ludwigshafen (Maudach)","LAT":49.4570111,"LON":8.3788612,"NUM_YEARS":13,"YIELD":13110,"RANK_#":37,"RANK_%":0.3,"CONTACTID":42},{"SITEID":162,"CONTID":"","GROUP":"cont","STATUS":"ex","ADDRESS":"Neustadterstr., 67112 Mutterstadt","LAT":49.43761,"LON":8.33252,"NUM_YEARS":3,"YIELD":530,"RANK_#":0,"RANK_%":0,"CONTACTID":3},{"SITEID":163,"CONTID":"H0186","GROUP":"cont","STATUS":"active","ADDRESS":"An der Froschlache, 67071 Ludwigshafen (Oggersheim)","LAT":49.4926288,"LON":8.3851512,"NUM_YEARS":13,"YIELD":14880,"RANK_#":35,"RANK_%":0.34,"CONTACTID":3},{"SITEID":164,"CONTID":"","GROUP":"cont","STATUS":"ex","ADDRESS":"Maxdorferstr\/Ruchheimer Weg, 68219 Mannheim (Rheinau)","LAT":49.426359,"LON":8.5356014,"NUM_YEARS":3,"YIELD":820,"RANK_#":0,"RANK_%":0,"CONTACTID":3},{"SITEID":165,"CONTID":"","GROUP":"cont","STATUS":"ex","ADDRESS":"Mundenheimerstr\/Dannstedterstr., 68199 Mannheim (Neckarau)","LAT":49.4564006,"LON":8.4870173,"NUM_YEARS":3,"YIELD":2170,"RANK_#":0,"RANK_%":0,"CONTACTID":3},{"SITEID":166,"CONTID":"","GROUP":"cont","STATUS":"ex","ADDRESS":"Donaustr., 68199 Mannheim (Neckarau)","LAT":49.4498,"LON":8.5059,"NUM_YEARS":3,"YIELD":660,"RANK_#":0,"RANK_%":0,"CONTACTID":3},{"SITEID":167,"CONTID":"L0120","GROUP":"cont","STATUS":"active","ADDRESS":"Wilhelm-Busch-Str. \/Wormserstr., 67071 Ludwigshafen (Oggersheim)","LAT":49.4956048,"LON":8.3710838,"NUM_YEARS":12,"YIELD":10650,"RANK_#":40,"RANK_%":0.26,"CONTACTID":3},{"SITEID":168,"CONTID":"","GROUP":"cont","STATUS":"ex","ADDRESS":"Pr\u00e4l\u00e4t-Caire-Str., 67071 Ludwigshafen (Oggersheim)","LAT":49.4922245,"LON":8.3830114,"NUM_YEARS":5,"YIELD":1290,"RANK_#":0,"RANK_%":0,"CONTACTID":3},{"SITEID":169,"CONTID":"","GROUP":"cont","STATUS":"active","ADDRESS":"Notwendestr\/Mittelpartstr., 67071 Ludwigshafen (Oggersheim)","LAT":49.49479,"LON":8.37928,"NUM_YEARS":7,"YIELD":2810,"RANK_#":52,"RANK_%":0.12,"CONTACTID":3},{"SITEID":170,"CONTID":"","GROUP":"cont","STATUS":"ex","ADDRESS":"W.-Busch-Str. gg\u00fc. Nr. 17, 67071 Ludwigshafen (Oggersheim)","LAT":49.4765982,"LON":8.3508367,"NUM_YEARS":3,"YIELD":10,"RANK_#":0,"RANK_%":0,"CONTACTID":3},{"SITEID":171,"CONTID":"K3024","GROUP":"cont","STATUS":"active","ADDRESS":"In den Weiherg\u00e4rten, 67071 Ludwigshafen (Oggersheim)","LAT":49.4950023,"LON":8.3748247,"NUM_YEARS":13,"YIELD":12290,"RANK_#":39,"RANK_%":0.28,"CONTACTID":3},{"SITEID":172,"CONTID":"L0026","GROUP":"cont","STATUS":"active","ADDRESS":"Wasserwerkstr. gg\u00fc. Nr. 35, 68309 Mannheim (K\u00e4fertal)","LAT":49.5146634,"LON":8.5305853,"NUM_YEARS":13,"YIELD":15920,"RANK_#":34,"RANK_%":0.36,"CONTACTID":-1},{"SITEID":173,"CONTID":"","GROUP":"cont","STATUS":"ex","ADDRESS":"Wasserwerkstr., 68309 Mannheim (K\u00e4fertal)","LAT":49.5221128,"LON":8.525442,"NUM_YEARS":3,"YIELD":2140,"RANK_#":0,"RANK_%":0,"CONTACTID":3},{"SITEID":174,"CONTID":"","GROUP":"cont","STATUS":"ex","ADDRESS":"Ladenburgerstr., 68309 Mannheim (K\u00e4fertal)","LAT":49.5118563,"LON":8.5211516,"NUM_YEARS":3,"YIELD":270,"RANK_#":0,"RANK_%":0,"CONTACTID":3},{"SITEID":175,"CONTID":"","GROUP":"cont","STATUS":"ex","ADDRESS":"Laudenbacherstr.\/Waldgrubenweg, 68309 Mannheim (Vogelstang)","LAT":49.518264,"LON":8.5421217,"NUM_YEARS":3,"YIELD":1790,"RANK_#":0,"RANK_%":0,"CONTACTID":3},{"SITEID":176,"CONTID":"","GROUP":"cont","STATUS":"ex","ADDRESS":"Boehringerstr., 68305 Mannheim (Waldhof)","LAT":49.5344768,"LON":8.4745834,"NUM_YEARS":5,"YIELD":930,"RANK_#":0,"RANK_%":0,"CONTACTID":3},{"SITEID":177,"CONTID":"","GROUP":"cont","STATUS":"ex","ADDRESS":"Dohlengasse, 68307 Mannheim (Sandhofen)","LAT":49.5436535,"LON":8.4546962,"NUM_YEARS":3,"YIELD":0,"RANK_#":0,"RANK_%":0,"CONTACTID":3},{"SITEID":178,"CONTID":"","GROUP":"cont","STATUS":"ex","ADDRESS":"In den Fersenb\u00e4umen, 69198 Schriesheim","LAT":49.4737672,"LON":8.66125,"NUM_YEARS":5,"YIELD":2730,"RANK_#":0,"RANK_%":0,"CONTACTID":3},{"SITEID":179,"CONTID":"","GROUP":"cont","STATUS":"ex","ADDRESS":"Mannheimerstr., 69198 Schriesheim","LAT":49.4729686,"LON":8.6555083,"NUM_YEARS":3,"YIELD":170,"RANK_#":0,"RANK_%":0,"CONTACTID":3},{"SITEID":180,"CONTID":"","GROUP":"cont","STATUS":"ex","ADDRESS":"Carl-Benz-Str., 69198 Schriesheim","LAT":49.46674,"LON":8.66433,"NUM_YEARS":3,"YIELD":2010,"RANK_#":0,"RANK_%":0,"CONTACTID":3},{"SITEID":181,"CONTID":"","GROUP":"cont","STATUS":"ex","ADDRESS":"Carl-Benz-Str., 69198 Schriesheim","LAT":49.46674,"LON":8.66433,"NUM_YEARS":3,"YIELD":130,"RANK_#":0,"RANK_%":0,"CONTACTID":3},{"SITEID":182,"CONTID":"","GROUP":"cont","STATUS":"ex","ADDRESS":"Seckenheimer Hauptstr., 68163 Mannheim (Seckenheim)","LAT":49.4649,"LON":8.56637,"NUM_YEARS":3,"YIELD":580,"RANK_#":0,"RANK_%":0,"CONTACTID":3},{"SITEID":183,"CONTID":"","GROUP":"cont","STATUS":"ex","ADDRESS":"Dammweg, 69123 Heidelberg (Wieblingen)","LAT":49.4198479,"LON":8.6475446,"NUM_YEARS":4,"YIELD":1000,"RANK_#":0,"RANK_%":0,"CONTACTID":39},{"SITEID":184,"CONTID":"","GROUP":"cont","STATUS":"ex","ADDRESS":"Waldhoferstr., 69123 Heidelberg (Wieblingen)","LAT":49.42587,"LON":8.64259,"NUM_YEARS":3,"YIELD":170,"RANK_#":0,"RANK_%":0,"CONTACTID":3},{"SITEID":185,"CONTID":"","GROUP":"cont","STATUS":"ex","ADDRESS":"Adlerstr.\/Kurpfalzstr., 69123 Heidelberg (Wieblingen)","LAT":49.4160136,"LON":8.6171786,"NUM_YEARS":3,"YIELD":2970,"RANK_#":0,"RANK_%":0,"CONTACTID":3},{"SITEID":186,"CONTID":"","GROUP":"cont","STATUS":"ex","ADDRESS":"Kinzigweg, 69123 Heidelberg (Wieblingen)","LAT":49.4115,"LON":8.6512,"NUM_YEARS":3,"YIELD":480,"RANK_#":0,"RANK_%":0,"CONTACTID":3},{"SITEID":187,"CONTID":"","GROUP":"cont","STATUS":"ex","ADDRESS":"Ludwig-Guttmann-Str., 69123 Heidelberg (Wieblingen)","LAT":49.4138352,"LON":8.6524338,"NUM_YEARS":3,"YIELD":600,"RANK_#":0,"RANK_%":0,"CONTACTID":3},{"SITEID":188,"CONTID":"","GROUP":"cont","STATUS":"ex","ADDRESS":"R\u00f6merstr., 68259 Mannheim (Wallstadt)","LAT":49.4998885,"LON":8.5437711,"NUM_YEARS":3,"YIELD":220,"RANK_#":0,"RANK_%":0,"CONTACTID":3},{"SITEID":189,"CONTID":"","GROUP":"cont","STATUS":"ex","ADDRESS":"Am Wallstadter Bahnhof, 68259 Mannheim (Wallstadt)","LAT":49.4986597,"LON":8.5478113,"NUM_YEARS":3,"YIELD":1040,"RANK_#":0,"RANK_%":0,"CONTACTID":3},{"SITEID":190,"CONTID":"","GROUP":"cont","STATUS":"ex","ADDRESS":"Wieblinger Weg, 69123 Heidelberg (Wieblingen)","LAT":49.4112,"LON":8.64882,"NUM_YEARS":3,"YIELD":1590,"RANK_#":0,"RANK_%":0,"CONTACTID":3},{"SITEID":191,"CONTID":"","GROUP":"cont","STATUS":"ex","ADDRESS":"H\u00f6lderlinstr., 68259 Mannheim (Feudenheim)","LAT":49.4949311,"LON":8.5306935,"NUM_YEARS":3,"YIELD":1050,"RANK_#":0,"RANK_%":0,"CONTACTID":3},{"SITEID":192,"CONTID":"","GROUP":"cont","STATUS":"ex","ADDRESS":"Am alten Weinheimer Weg, 68519 Viernheim","LAT":49.55003,"LON":8.60764,"NUM_YEARS":3,"YIELD":450,"RANK_#":0,"RANK_%":0,"CONTACTID":3},{"SITEID":193,"CONTID":"","GROUP":"cont","STATUS":"ex","ADDRESS":"Heidelbergerstr. 80, 68519 Viernheim","LAT":49.5369566,"LON":8.5902191,"NUM_YEARS":4,"YIELD":110,"RANK_#":0,"RANK_%":0,"CONTACTID":3},{"SITEID":194,"CONTID":"","GROUP":"cont","STATUS":"ex","ADDRESS":"Neuzenlache gg\u00fc. Nr. 75, 68519 Viernheim","LAT":49.5412437,"LON":8.5784877,"NUM_YEARS":3,"YIELD":670,"RANK_#":0,"RANK_%":0,"CONTACTID":3},{"SITEID":195,"CONTID":"L0071","GROUP":"cont","STATUS":"active","ADDRESS":"Semmelweisstr., 67071 Ludwigshafen (Oggersheim)","LAT":49.48778,"LON":8.38579,"NUM_YEARS":13,"YIELD":6850,"RANK_#":50,"RANK_%":0.16,"CONTACTID":3},{"SITEID":196,"CONTID":"","GROUP":"cont","STATUS":"ex","ADDRESS":"K\u00e4fertalerstr., 68167 Mannheim (Neckarstadt)","LAT":49.4968348,"LON":8.4912334,"NUM_YEARS":3,"YIELD":710,"RANK_#":0,"RANK_%":0,"CONTACTID":3},{"SITEID":197,"CONTID":"","GROUP":"cont","STATUS":"ex","ADDRESS":"Galgenstr., 69493 Hirschberg (Leutershausen)","LAT":49.50141,"LON":8.6454,"NUM_YEARS":5,"YIELD":4580,"RANK_#":0,"RANK_%":0,"CONTACTID":3},{"SITEID":198,"CONTID":"","GROUP":"cont","STATUS":"active","ADDRESS":"Heidelbergerstr.\/Neckarstr., 69493 Hirschberg (Leutershausen)","LAT":49.4957146,"LON":8.6530985,"NUM_YEARS":8,"YIELD":8960,"RANK_#":36,"RANK_%":0.33,"CONTACTID":3},{"SITEID":199,"CONTID":"","GROUP":"cont","STATUS":"active","ADDRESS":"Gerhart-Hauptmann-Str. 30, 69221 Dossenheim","LAT":49.4427549,"LON":8.6663008,"NUM_YEARS":8,"YIELD":15290,"RANK_#":16,"RANK_%":0.56,"CONTACTID":3},{"SITEID":200,"CONTID":"","GROUP":"cont","STATUS":"ex","ADDRESS":"Boveristr. \/Zielstr., 68309 Mannheim (K\u00e4fertal)","LAT":49.50573,"LON":8.49906,"NUM_YEARS":3,"YIELD":670,"RANK_#":0,"RANK_%":0,"CONTACTID":41},{"SITEID":201,"CONTID":"","GROUP":"cont","STATUS":"ex","ADDRESS":"Dudenstr., 68167 Mannheim (Neckarstadt)","LAT":49.49723,"LON":8.50393,"NUM_YEARS":3,"YIELD":860,"RANK_#":0,"RANK_%":0,"CONTACTID":3},{"SITEID":202,"CONTID":"","GROUP":"cont","STATUS":"ex","ADDRESS":"Schwabenstr., 68293 Mannheim (Suebenheim)","LAT":49.45622,"LON":8.5689,"NUM_YEARS":3,"YIELD":390,"RANK_#":0,"RANK_%":0,"CONTACTID":3},{"SITEID":203,"CONTID":"","GROUP":"cont","STATUS":"ex","ADDRESS":"Hans-Thoma-Str., 68163 Mannheim (Neuostheim)","LAT":49.47342,"LON":8.53215,"NUM_YEARS":5,"YIELD":1520,"RANK_#":0,"RANK_%":0,"CONTACTID":3},{"SITEID":204,"CONTID":"","GROUP":"cont","STATUS":"ex","ADDRESS":"Holbeinstr.\/B\u00f6cklinstr., 68163 Mannheim (Neuostheim)","LAT":49.4794366,"LON":8.5114765,"NUM_YEARS":3,"YIELD":90,"RANK_#":0,"RANK_%":0,"CONTACTID":3},{"SITEID":205,"CONTID":"","GROUP":"cont","STATUS":"ex","ADDRESS":"Br\u00fcckenstr. \/Freiherr-von-Drais-Str., 69214 Eppelheim","LAT":49.3987406,"LON":8.6371908,"NUM_YEARS":4,"YIELD":1510,"RANK_#":0,"RANK_%":0,"CONTACTID":3},{"SITEID":206,"CONTID":"","GROUP":"cont","STATUS":"active","ADDRESS":"Boschstr. \/Schulstr., 69214 Eppelheim","LAT":49.4039512,"LON":8.6270034,"NUM_YEARS":6,"YIELD":9060,"RANK_#":29,"RANK_%":0.45,"CONTACTID":80408},{"SITEID":207,"CONTID":"","GROUP":"cont","STATUS":"ex","ADDRESS":"Gneisenaustr. \/Bl\u00fccherstr., 69115 Heidelberg (Weststadt)","LAT":49.40685,"LON":8.67054,"NUM_YEARS":2,"YIELD":340,"RANK_#":0,"RANK_%":0,"CONTACTID":3},{"SITEID":208,"CONTID":"","GROUP":"cont","STATUS":"ex","ADDRESS":"Gro\u00dfer Weidst\u00fcckerweg \/Rampenweg, 68163 Mannheim (Lindenhof)","LAT":49.47064,"LON":8.48363,"NUM_YEARS":2,"YIELD":340,"RANK_#":0,"RANK_%":0,"CONTACTID":3},{"SITEID":209,"CONTID":"","GROUP":"cont","STATUS":"ex","ADDRESS":"Friedelsheimerstr. \/Mundenheimer, 68199 Mannheim (Neckarau)","LAT":49.4564006,"LON":8.4870173,"NUM_YEARS":3,"YIELD":880,"RANK_#":0,"RANK_%":0,"CONTACTID":3},{"SITEID":210,"CONTID":"","GROUP":"cont","STATUS":"ex","ADDRESS":"Ilvesheimer Str. \/Banaterstr., 68259 Mannheim (Feudenheim)","LAT":49.4793643,"LON":8.5385632,"NUM_YEARS":2,"YIELD":430,"RANK_#":0,"RANK_%":0,"CONTACTID":3},{"SITEID":211,"CONTID":"","GROUP":"cont","STATUS":"ex","ADDRESS":"Wetzlarer Winkel \/Wiesbadener Str., 68305 Mannheim (Waldhof)","LAT":49.5229309,"LON":8.4937207,"NUM_YEARS":2,"YIELD":410,"RANK_#":0,"RANK_%":0,"CONTACTID":3},{"SITEID":212,"CONTID":"","GROUP":"cont","STATUS":"ex","ADDRESS":"Gutenbergstr. \/Christ.-Friedr.-Schwan, 68167 Mannheim (Wohlgelegen)","LAT":49.4942149,"LON":8.4952095,"NUM_YEARS":4,"YIELD":610,"RANK_#":0,"RANK_%":0,"CONTACTID":3},{"SITEID":213,"CONTID":"","GROUP":"cont","STATUS":"ex","ADDRESS":"Weylstr.\/Nebenz. \/Garnisonstr., 68167 Mannheim (Wohlgelegen)","LAT":49.4991543,"LON":8.4932552,"NUM_YEARS":4,"YIELD":840,"RANK_#":0,"RANK_%":0,"CONTACTID":3},{"SITEID":214,"CONTID":"","GROUP":"cont","STATUS":"ex","ADDRESS":"Radeberger Str. \/Schaafeckstr., 68309 Mannheim (Vogelstang)","LAT":49.5146634,"LON":8.5305853,"NUM_YEARS":2,"YIELD":250,"RANK_#":0,"RANK_%":0,"CONTACTID":3},{"SITEID":215,"CONTID":"","GROUP":"cont","STATUS":"active","ADDRESS":"Heltenstr. \/Bayerm\u00fchle, 69181 Leimen","LAT":49.3539231,"LON":8.703341,"NUM_YEARS":5,"YIELD":5130,"RANK_#":38,"RANK_%":0.3,"CONTACTID":3},{"SITEID":216,"CONTID":"","GROUP":"cont","STATUS":"ex","ADDRESS":"Im Emmertsgrund \/Bothestr., 69126 Heidelberg (Emmertsgrund)","LAT":49.36677,"LON":8.7012593,"NUM_YEARS":1,"YIELD":870,"RANK_#":0,"RANK_%":0,"CONTACTID":3},{"SITEID":217,"CONTID":"","GROUP":"cont","STATUS":"ex","ADDRESS":"Am G\u00f6tzenberg \/Boxbergring, 69126 Heidelberg (Boxberg)","LAT":49.37702,"LON":8.7062,"NUM_YEARS":1,"YIELD":410,"RANK_#":0,"RANK_%":0,"CONTACTID":3},{"SITEID":218,"CONTID":"","GROUP":"cont","STATUS":"ex","ADDRESS":"Zur Forstquelle \/Boxbergring, 69126 Heidelberg (Boxberg)","LAT":49.37702,"LON":8.7062,"NUM_YEARS":1,"YIELD":440,"RANK_#":0,"RANK_%":0,"CONTACTID":3},{"SITEID":219,"CONTID":"K1744","GROUP":"cont","STATUS":"active","ADDRESS":"Hertzstr. \/Englerstr., 69126 Heidelberg (Rohrbach)","LAT":49.367005,"LON":8.6802377,"NUM_YEARS":11,"YIELD":22270,"RANK_#":13,"RANK_%":0.6,"CONTACTID":3},{"SITEID":220,"CONTID":"","GROUP":"cont","STATUS":"ex","ADDRESS":"Stralsunder Ring \/Olpenitzer Str., 69181 Leimen","LAT":49.35556,"LON":8.68093,"NUM_YEARS":1,"YIELD":630,"RANK_#":0,"RANK_%":0,"CONTACTID":3},{"SITEID":221,"CONTID":"","GROUP":"cont","STATUS":"ex","ADDRESS":"Lilienthalstr. ne 299 \/Friedr.-D\u00fcrr-Str., 68307 Mannheim (Sch\u00f6nau)","LAT":49.5558585,"LON":8.4587044,"NUM_YEARS":1,"YIELD":650,"RANK_#":0,"RANK_%":0,"CONTACTID":3},{"SITEID":222,"CONTID":"","GROUP":"cont","STATUS":"ex","ADDRESS":"Heuauer Weg \/Cuzaring, 69124 Heidelberg (Kirchheim)","LAT":49.3772484,"LON":8.6575484,"NUM_YEARS":1,"YIELD":880,"RANK_#":0,"RANK_%":0,"CONTACTID":-1},{"SITEID":223,"CONTID":"","GROUP":"cont","STATUS":"ex","ADDRESS":"Giuliniplatz, 67065 Ludwigshafen","LAT":49.4550704,"LON":8.4249117,"NUM_YEARS":2,"YIELD":280,"RANK_#":0,"RANK_%":0,"CONTACTID":3},{"SITEID":224,"CONTID":"","GROUP":"cont","STATUS":"ex","ADDRESS":"Anhalter Str., 68775 Ketsch (Industriegebiet S\u00fcd)","LAT":49.35045,"LON":8.52961,"NUM_YEARS":2,"YIELD":340,"RANK_#":0,"RANK_%":0,"CONTACTID":3},{"SITEID":225,"CONTID":"","GROUP":"cont","STATUS":"ex","ADDRESS":"Eppelheimer Str. \/Ostumgehung, 68723 Plankstadt","LAT":49.3951474,"LON":8.5891599,"NUM_YEARS":0,"YIELD":0,"RANK_#":0,"RANK_%":0,"CONTACTID":3},{"SITEID":226,"CONTID":"","GROUP":"cont","STATUS":"active","ADDRESS":"Schwetzinger Str., 69168 Wiesloch","LAT":49.2918512,"LON":8.6883217,"NUM_YEARS":4,"YIELD":13570,"RANK_#":1,"RANK_%":1,"CONTACTID":3},{"SITEID":227,"CONTID":"","GROUP":"cont","STATUS":"active","ADDRESS":"B39 \/A5, 69190 Walldorf","LAT":49.3051114,"LON":8.6274118,"NUM_YEARS":5,"YIELD":7890,"RANK_#":24,"RANK_%":0.47,"CONTACTID":3},{"SITEID":228,"CONTID":"","GROUP":"cont","STATUS":"ex","ADDRESS":"Walldorfer Str. 2, 68799 Reilingen","LAT":49.2945002,"LON":8.5789584,"NUM_YEARS":0,"YIELD":0,"RANK_#":0,"RANK_%":0,"CONTACTID":3},{"SITEID":229,"CONTID":"","GROUP":"cont","STATUS":"ex","ADDRESS":"Heidelberger Str. \/Albert-Schweitzer, 68723 Oftersheim","LAT":49.3715711,"LON":8.583012,"NUM_YEARS":0,"YIELD":0,"RANK_#":0,"RANK_%":0,"CONTACTID":3},{"SITEID":230,"CONTID":"","GROUP":"cont","STATUS":"ex","ADDRESS":"Speyerer Str. \/Duttweiler Str., 68766 Hockenheim (Industriegebiet Talhaus)","LAT":49.333818,"LON":8.5339154,"NUM_YEARS":0,"YIELD":0,"RANK_#":0,"RANK_%":0,"CONTACTID":3},{"SITEID":231,"CONTID":"","GROUP":"cont","STATUS":"ex","ADDRESS":"Namenlose \/Markgrafenstr., 68723 Schwetzingen","LAT":49.37847,"LON":8.57706,"NUM_YEARS":1,"YIELD":60,"RANK_#":0,"RANK_%":0,"CONTACTID":3},{"SITEID":232,"CONTID":"","GROUP":"cont","STATUS":"active","ADDRESS":"Boschstr. \/Schulstr., 69214 Eppelheim","LAT":49.4039512,"LON":8.6270034,"NUM_YEARS":4,"YIELD":5510,"RANK_#":33,"RANK_%":0.41,"CONTACTID":80408},{"SITEID":233,"CONTID":"","GROUP":"cont","STATUS":"ex","ADDRESS":"Galgenstr., 69493 Hirschberg (Leutershausen)","LAT":49.50141,"LON":8.6454,"NUM_YEARS":1,"YIELD":1200,"RANK_#":0,"RANK_%":0,"CONTACTID":3},{"SITEID":234,"CONTID":"","GROUP":"cont","STATUS":"ex","ADDRESS":"Frankfurterstr. gg\u00fc.  239 \/Speyerer, 68782 Br\u00fchl","LAT":49.4034723,"LON":8.5318309,"NUM_YEARS":9,"YIELD":16840,"RANK_#":0,"RANK_%":0,"CONTACTID":3},{"SITEID":235,"CONTID":"","GROUP":"Schuh","STATUS":"ex","ADDRESS":"Handelsstr., 69214 Eppelheim","LAT":49.40888,"LON":8.62796,"NUM_YEARS":5,"YIELD":10620,"RANK_#":0,"RANK_%":0,"CONTACTID":80408},{"SITEID":1001,"CONTID":"","GROUP":"cont","STATUS":"active","ADDRESS":"Schwetzinger Str., 69168 Wiesloch","LAT":49.2918512,"LON":8.6883217,"NUM_YEARS":4,"YIELD":11810,"RANK_#":3,"RANK_%":0.87,"CONTACTID":45},{"SITEID":1002,"CONTID":"","GROUP":"cont","STATUS":"ex","ADDRESS":"Im H\u00fcttenb\u00fchl, 69123 Heidelberg (Kirchheim)","LAT":49.3833197,"LON":8.6604436,"NUM_YEARS":6,"YIELD":6950,"RANK_#":0,"RANK_%":0,"CONTACTID":3},{"SITEID":1003,"CONTID":"","GROUP":"cont","STATUS":"ex","ADDRESS":"Frankfurter\/Bismarckstr\/Werkstr, 68782 Br\u00fchl (Rohrbach)","LAT":49.40857,"LON":8.52968,"NUM_YEARS":1,"YIELD":0,"RANK_#":0,"RANK_%":0,"CONTACTID":3},{"SITEID":1004,"CONTID":"","GROUP":"cont","STATUS":"ex","ADDRESS":"Weylstr. \/Nebenz. \/Garnisonstr., 68167 Mannheim (Wohlgelegen)","LAT":49.4991543,"LON":8.4932552,"NUM_YEARS":2,"YIELD":650,"RANK_#":0,"RANK_%":0,"CONTACTID":3},{"SITEID":1005,"CONTID":"L0129","GROUP":"cont","STATUS":"active","ADDRESS":"Georg-B\u00fcchnerstr. \/Georg-Herwegh-Str., 67061 Ludwigshafen (S\u00fcd)","LAT":49.47169,"LON":8.4341,"NUM_YEARS":10,"YIELD":18600,"RANK_#":18,"RANK_%":0.55,"CONTACTID":3},{"SITEID":1006,"CONTID":"L0011","GROUP":"cont","STATUS":"active","ADDRESS":"Alte Frankfurter Str. gg\u00fc. 8, 68305 Mannheim (Waldhof)","LAT":49.5375371,"LON":8.4985899,"NUM_YEARS":10,"YIELD":22140,"RANK_#":10,"RANK_%":0.65,"CONTACTID":3},{"SITEID":1007,"CONTID":"","GROUP":"cont","STATUS":"ex","ADDRESS":"Wachenburger Str. o. Nr., 68239 Mannheim (Hochst\u00e4tten)","LAT":49.4617313,"LON":8.553393,"NUM_YEARS":2,"YIELD":810,"RANK_#":0,"RANK_%":0,"CONTACTID":3},{"SITEID":1008,"CONTID":"","GROUP":"cont","STATUS":"ex","ADDRESS":"Wachenburger Str. o. Nr., 68239 Mannheim (Hochst\u00e4tten)","LAT":49.4617313,"LON":8.553393,"NUM_YEARS":2,"YIELD":770,"RANK_#":0,"RANK_%":0,"CONTACTID":3},{"SITEID":1009,"CONTID":"","GROUP":"cont","STATUS":"ex","ADDRESS":"Alte Frankfurter Str. gg\u00fc. 8, 68305 Mannheim (Waldhof)","LAT":49.5375371,"LON":8.4985899,"NUM_YEARS":0,"YIELD":0,"RANK_#":0,"RANK_%":0,"CONTACTID":3},{"SITEID":1011,"CONTID":"","GROUP":"cont","STATUS":"ex","ADDRESS":"Bunsenstr., 68167 Mannheim","LAT":49.5001995,"LON":8.4594875,"NUM_YEARS":2,"YIELD":520,"RANK_#":0,"RANK_%":0,"CONTACTID":3},{"SITEID":1012,"CONTID":"","GROUP":"cont","STATUS":"ex","ADDRESS":"Erlenweg 22, 69126 Heidelberg (Rohrbach)","LAT":49.37595,"LON":8.67649,"NUM_YEARS":2,"YIELD":1810,"RANK_#":0,"RANK_%":0,"CONTACTID":3},{"SITEID":1013,"CONTID":"K1736","GROUP":"cont","STATUS":"active","ADDRESS":"Hagellachstr.\/Wolfgangstr., 69123 Heidelberg (Kirchheim)","LAT":49.3762891,"LON":8.6715587,"NUM_YEARS":10,"YIELD":15380,"RANK_#":28,"RANK_%":0.45,"CONTACTID":3},{"SITEID":1014,"CONTID":"","GROUP":"cont","STATUS":"active","ADDRESS":"Gerhart-Hauptmann-Str. 30, 69221 Dossenheim","LAT":49.4427549,"LON":8.6663008,"NUM_YEARS":5,"YIELD":9980,"RANK_#":14,"RANK_%":0.59,"CONTACTID":3},{"SITEID":1015,"CONTID":"","GROUP":"cont","STATUS":"ex","ADDRESS":"Rohrhofer Str.\/Am Rheinauer See, 68219 Mannheim (Rheinau)","LAT":49.4158441,"LON":8.5323459,"NUM_YEARS":2,"YIELD":980,"RANK_#":0,"RANK_%":0,"CONTACTID":3},{"SITEID":1016,"CONTID":"","GROUP":"cont","STATUS":"active","ADDRESS":"Bahnhofstr., 68542 Heddesheim","LAT":49.5051918,"LON":8.596616,"NUM_YEARS":5,"YIELD":8030,"RANK_#":25,"RANK_%":0.47,"CONTACTID":825},{"SITEID":1017,"CONTID":"L0063","GROUP":"cont","STATUS":"ex","ADDRESS":"Speyerer Str. \/Frankenfelsstr., 67071 Ludwigshafen (Oggersheim)","LAT":49.4825045,"LON":8.3689251,"NUM_YEARS":10,"YIELD":13040,"RANK_#":0,"RANK_%":0,"CONTACTID":3},{"SITEID":1018,"CONTID":"H0071","GROUP":"cont","STATUS":"active","ADDRESS":"Magdeburger Str., 67071 Ludwigshafen (Ruchheim)","LAT":49.4759455,"LON":8.3339731,"NUM_YEARS":10,"YIELD":18150,"RANK_#":21,"RANK_%":0.54,"CONTACTID":3},{"SITEID":1019,"CONTID":"","GROUP":"cont","STATUS":"ex","ADDRESS":"Neckarauer Waldweg, 68199 Mannheim (Neckarau)","LAT":49.4493662,"LON":8.4780988,"NUM_YEARS":2,"YIELD":250,"RANK_#":0,"RANK_%":0,"CONTACTID":19},{"SITEID":1020,"CONTID":"","GROUP":"cont","STATUS":"ex","ADDRESS":"Fr\u00fchlingsstr., 67227 Frankenthal (Frankenthal)","LAT":49.542242,"LON":8.356587,"NUM_YEARS":2,"YIELD":0,"RANK_#":0,"RANK_%":0,"CONTACTID":3},{"SITEID":1160,"CONTID":"","GROUP":"cont","STATUS":"active","ADDRESS":"Schwetzinger Str., 69168 Wiesloch","LAT":49.2918512,"LON":8.6883217,"NUM_YEARS":3,"YIELD":7760,"RANK_#":5,"RANK_%":0.76,"CONTACTID":45},{"SITEID":1162,"CONTID":"","GROUP":"cont","STATUS":"active","ADDRESS":"Gerhart-Hauptmann-Str. 30, 69221 Dossenheim","LAT":49.4427549,"LON":8.6663008,"NUM_YEARS":4,"YIELD":6330,"RANK_#":26,"RANK_%":0.47,"CONTACTID":3},{"SITEID":1163,"CONTID":"K3129","GROUP":"cont","STATUS":"active","ADDRESS":"Frigenstra\u00dfe, 67065 Ludwigshafen (Maudach)","LAT":49.44768,"LON":8.37597,"NUM_YEARS":9,"YIELD":7010,"RANK_#":44,"RANK_%":0.23,"CONTACTID":3},{"SITEID":2287,"CONTID":"","GROUP":"cont","STATUS":"active","ADDRESS":"B\u00f6cklinstr. \/Thorwaldsenstr., 67061 Ludwigshafen (S\u00fcd)","LAT":49.4685685,"LON":8.4460468,"NUM_YEARS":2,"YIELD":1240,"RANK_#":49,"RANK_%":0.18,"CONTACTID":31},{"SITEID":2288,"CONTID":"","GROUP":"cont","STATUS":"ex","ADDRESS":"Goethestr., 67165 Waldsee","LAT":49.393758,"LON":8.4347311,"NUM_YEARS":2,"YIELD":440,"RANK_#":0,"RANK_%":0,"CONTACTID":3},{"SITEID":2289,"CONTID":"","GROUP":"cont","STATUS":"ex","ADDRESS":"Handelsstr., 69214 Eppelheim","LAT":49.40888,"LON":8.62796,"NUM_YEARS":2,"YIELD":2040,"RANK_#":0,"RANK_%":0,"CONTACTID":80406},{"SITEID":2336,"CONTID":"L0085","GROUP":"cont","STATUS":"active","ADDRESS":"Stra\u00dfe zur Autobahn, 69221 Dossenheim","LAT":49.4485694,"LON":8.6724036,"NUM_YEARS":4,"YIELD":5650,"RANK_#":32,"RANK_%":0.42,"CONTACTID":-1},{"SITEID":2711,"CONTID":"L0124","GROUP":"cont","STATUS":"active","ADDRESS":"Goethestr., 67165 Waldsee","LAT":49.393758,"LON":8.4347311,"NUM_YEARS":3,"YIELD":7320,"RANK_#":7,"RANK_%":0.72,"CONTACTID":-1},{"SITEID":2712,"CONTID":"L0119","GROUP":"cont","STATUS":"active","ADDRESS":"Chenoverstr. \/Mainstr., 67117 Limburgerhof","LAT":49.4230206,"LON":8.395799,"NUM_YEARS":3,"YIELD":7300,"RANK_#":8,"RANK_%":0.72,"CONTACTID":-1},{"SITEID":2713,"CONTID":"L0121","GROUP":"cont","STATUS":"active","ADDRESS":"B\u00f6cklinstr. \/Thorwaldsenstr., 67061 Ludwigshafen (S\u00fcd)","LAT":49.4685685,"LON":8.4460468,"NUM_YEARS":3,"YIELD":9200,"RANK_#":2,"RANK_%":0.9,"CONTACTID":-1},{"SITEID":2714,"CONTID":"","GROUP":"cont","STATUS":"ex","ADDRESS":"Frankfurterstr. gg\u00fc.  239 \/Speyerer, 68782 Br\u00fchl","LAT":49.4034723,"LON":8.5318309,"NUM_YEARS":3,"YIELD":4690,"RANK_#":0,"RANK_%":0,"CONTACTID":-1}]